Price,Bedrooms,Latitude,Longitude,Title,PostedDate,PostingID,URL
950,4,41.688122,-73.176508,3 bedroom 2 bathrooms Southbury Clean area,2019-03-25 16:40:34,6837318773,https://newhaven.craigslist.org/apa/d/morris-3-bedroom-2-bathrooms-southbury/6837318773.html
200,1,41.535142,-72.789016,"EAST SIDE OF MERIDEN, CLEAN & SAFE FURNISHED STUDIO",2019-03-25 16:38:43,6834491544,https://newhaven.craigslist.org/apa/d/meriden-east-side-of-meriden-clean-safe/6834491544.html
1750,1,41.129889,-73.41354,"Great location, 1 Bdrm condo, Norwalk CT Heat included- PET FRIENDLY",2019-03-25 16:14:12,6850240288,https://newhaven.craigslist.org/apa/d/norwalk-great-location-1-bdrm-condo/6850240288.html
576,4,41.307621,-72.895071,!! Ultimate Escape !! 4Bd/2Ba with All Appliance and Natural Light!!!,2019-03-25 15:51:43,6831310091,https://newhaven.craigslist.org/apa/d/new-haven-ultimate-escape-4bd-2ba-with/6831310091.html
2175,3,41.31484,-72.91289,Spacious 1st floor East Rock 3br,2019-03-25 15:50:27,6828561773,https://newhaven.craigslist.org/apa/d/new-haven-spacious-1st-floor-east-rock/6828561773.html
2650,2,41.314095,-72.91203,Stylish townhouse / 2 BR / 1.5 BA / Utilities included,2019-03-25 15:30:19,6850197368,https://newhaven.craigslist.org/apa/d/new-haven-stylish-townhouse-2-br-15-ba/6850197368.html
2650,2,41.314095,-72.91203,UTILITIES INCLUDED! 2 BR townhouse in prime East Rock location!,2019-03-24 15:41:35,6847752845,https://newhaven.craigslist.org/apa/d/new-haven-utilities-included-2-br/6847752845.html
2600,3,41.314325,-72.91203,"East Rock huge 3br/2bath, 2floors",2019-03-23 09:50:12,6837795063,https://newhaven.craigslist.org/apa/d/new-haven-east-rock-huge-3br-2bath/6837795063.html
2250,3,41.315012,-72.913119,Spacious 2nd floor East Rock 3 Bed,2019-03-25 15:50:22,6828568470,https://newhaven.craigslist.org/apa/d/new-haven-spacious-2nd-floor-east-rock/6828568470.html
2600,3,41.362281,-72.909165,Hamden / Charming Colonial / 3 BR / 2 BA,2019-03-25 15:36:12,6850203349,https://newhaven.craigslist.org/apa/d/hamden-hamden-charming-colonial-3-br-2/6850203349.html
1500,2,41.312949,-72.934662,"Sunny 2 BR, hardwood floors, in Yale area for August 15",2019-03-25 15:32:28,6830204554,https://newhaven.craigslist.org/apa/d/new-haven-sunny-2-br-hardwood-floors-in/6830204554.html
1215,1,41.312949,-72.934662,"Open & renovated kitchen, hardwood floors, tons of light, Yale area",2019-03-21 13:25:50,6839894645,https://newhaven.craigslist.org/apa/d/new-haven-open-renovated-kitchen/6839894645.html
1200,2,41.329107,-73.100018,"today Mon 530 - come see! fresh, spacious, near parks, more!",2019-03-25 15:22:02,6850189466,https://newhaven.craigslist.org/apa/d/derby-today-mon-come-see-fresh-spacious/6850189466.html
965,1,41.364516,-72.929448,"Cozy apartment in a building, Parking",2019-03-25 15:18:07,6829389372,https://newhaven.craigslist.org/apa/d/cheshire-cozy-apartment-in-building/6829389372.html
800,1,41.364516,-72.929448,Charming 1 Bedroom 2nd floor.,2019-03-22 18:26:29,6832525338,https://newhaven.craigslist.org/apa/d/cheshire-charming-1-bedroom-2nd-floor/6832525338.html
2600,3,41.363599,-72.915124,Charming colonial with 3 bedrooms and 2 full baths available 7-1,2019-03-25 15:07:37,6839767516,https://newhaven.craigslist.org/apa/d/cheshire-charming-colonial-with-3/6839767516.html
1300,3,41.315184,-72.896961,3 Bedroom 1 Bathroom Apartment - 5 mins from Yale - 1 min from I-91,2019-03-25 15:02:08,6833492684,https://newhaven.craigslist.org/apa/d/new-haven-3-bedroom-1-bathroom/6833492684.html
1300,3,41.315184,-72.896961,3 Bedroom 1 Bathroom Apartment - 5 mins from Yale - 1 min from I-91,2019-03-21 10:46:59,6833897277,https://newhaven.craigslist.org/apa/d/new-haven-3-bedroom-1-bathroom/6833897277.html
995,0,41.314325,-72.921427,"Immaculate Studio in an apt Building, Includes Heat, Hot/w & A/C.",2019-03-25 14:44:08,6850150057,https://newhaven.craigslist.org/apa/d/new-haven-immaculate-studio-in-an-apt/6850150057.html
1200,1,41.307506,-72.88407,1 bedroom 1 bath loft/open layout apartment on Grand Ave!,2019-03-25 14:44:04,6850149985,https://newhaven.craigslist.org/apa/d/new-haven-1-bedroom-1-bath-loft-open/6850149985.html
1150,3,41.330425,-72.965315,"Large apartment, Big backyard and off st parking.",2019-03-25 14:38:14,6839597248,https://newhaven.craigslist.org/apa/d/new-haven-large-apartment-big-backyard/6839597248.html
2200,5,41.328419,-72.937298,LARGE 5 BR 3 FULL BATH SINGLE FAMILY HOUSE NOW AVAILABLE!!,2019-03-25 14:35:40,6842180632,https://newhaven.craigslist.org/apa/d/new-haven-large-5-br-3-full-bath-single/6842180632.html
2200,5,41.328419,-72.937298,LARGE 5 BR 3 FULL BATH SINGLE FAMILY HOUSE NOW AVAILABLE,2019-03-25 11:07:30,6847504561,https://newhaven.craigslist.org/apa/d/new-haven-large-5-br-3-full-bath-single/6847504561.html
2200,5,41.328419,-72.937298,5BR - 3FULL BATH SINGLE ** DON'T MISS IT**,2019-03-24 21:51:39,6849635267,https://newhaven.craigslist.org/apa/d/new-haven-5br-3full-bath-single-dont/6849635267.html
2000,4,41.298396,-72.958955,BEAUTIFUL 4 BR SINGLE FAMILY HOUSE IN A GREAT AREA NOW AVAILABLE!!,2019-03-25 14:35:35,6842165717,https://newhaven.craigslist.org/apa/d/new-haven-beautiful-4-br-single-family/6842165717.html
2000,4,41.298396,-72.958955,BEAUTIFUL 4 BR SINGLE FAMILY HOUSE IN A GREAT AREA NOW AVAILABLE,2019-03-25 11:07:21,6847503965,https://newhaven.craigslist.org/apa/d/new-haven-beautiful-4-br-single-family/6847503965.html
850,1,41.298396,-72.942053,COZY 1 BR APARTMENT ON THE 1ST FLOOR NOW AVAILABLE!,2019-03-25 14:35:28,6839872679,https://newhaven.craigslist.org/apa/d/new-haven-cozy-1-br-apartment-on-the/6839872679.html
850,1,41.298396,-72.942053,COZY 1 BR APARTMENT ON THE 1ST FLOOR NOW AVAILABLE!,2019-03-25 11:07:35,6847506464,https://newhaven.craigslist.org/apa/d/new-haven-cozy-1-br-apartment-on-the/6847506464.html
850,1,41.298396,-72.942053,1 BR COZY APARTMENT,2019-03-24 21:51:10,6849635028,https://newhaven.craigslist.org/apa/d/new-haven-1-br-cozy-apartment/6849635028.html
850,1,41.298396,-72.942053,1 BR COZY APARTMENT,2019-03-24 21:50:46,6849634816,https://newhaven.craigslist.org/apa/d/new-haven-1-br-cozy-apartment/6849634816.html
1100,3,41.282755,-72.931625,COZY NEWLY RENOVATED 3 BR APARTMENT IN A QUIET STREET NOW AVAILABLE!!,2019-03-25 14:31:00,6829567463,https://newhaven.craigslist.org/apa/d/new-haven-cozy-newly-renovated-3-br/6829567463.html
1700,1,41.282468,-72.931568,"Paradisal condo, direct water/pool/club house/deck",2019-03-23 08:59:41,6835662834,https://newhaven.craigslist.org/apa/d/new-haven-paradisal-condo-direct-water/6835662834.html
1250,3,41.331914,-72.935235,BEAUTIFUL NEWLY RENOVATED 3 BR APARTMENT NOW AVAILABLE!,2019-03-25 14:30:52,6830490107,https://newhaven.craigslist.org/apa/d/new-haven-beautiful-newly-renovated-3/6830490107.html
1250,3,41.331914,-72.935235,3BR **BRAND NEW**,2019-03-24 22:05:18,6849642179,https://newhaven.craigslist.org/apa/d/new-haven-3br-brand-new/6849642179.html
1100,3,41.310199,-72.902118,BEAUTIFUL NEWLY RENOVATED 3 BR APARTMENT NOW AVAILABLE!!,2019-03-25 14:30:42,6828869791,https://newhaven.craigslist.org/apa/d/new-haven-beautiful-newly-renovated-3/6828869791.html
1100,3,41.310199,-72.902118,BEAUTIFUL NEWLEY RENOVATED 3 BR APARTMENT ON THE 1ST FLOOR AVAILABLE,2019-03-25 11:08:45,6847627407,https://newhaven.craigslist.org/apa/d/new-haven-beautiful-newley-renovated-3/6847627407.html
1100,3,41.310199,-72.902118,3BR *NEW*,2019-03-22 12:50:23,6831411375,https://newhaven.craigslist.org/apa/d/new-haven-3br-new/6831411375.html
1050,2,41.292781,-72.942569,BEAUTIFUL BRAND NEW 2 BR APARTMENT ON THE 1ST FLOOR NOW AVAILABLE!!,2019-03-25 14:30:36,6828863787,https://newhaven.craigslist.org/apa/d/new-haven-beautiful-brand-new-2-br/6828863787.html
1100,2,41.292781,-72.942569,BEAUTIFUL BRAND NEW 2 BR APARTMENT ON THE 1ST FLOOR AVAILABLE,2019-03-25 11:08:41,6847627017,https://newhaven.craigslist.org/apa/d/new-haven-beautiful-brand-new-2-br/6847627017.html
1050,2,41.292781,-72.942569,BEAUTIFUL BRAND NEW 2 BR APARTMENT ON THE 1ST FLOOR NOW AVAILABLE!!,2019-03-22 12:51:16,6835373758,https://newhaven.craigslist.org/apa/d/new-haven-beautiful-brand-new-2-br/6835373758.html
1050,2,41.292781,-72.942569,BRAND NEW -ONE OF A KIND - 2 BR APT.,2019-03-18 08:59:48,6840544811,https://newhaven.craigslist.org/apa/d/new-haven-brand-new-one-of-kind-2-br-apt/6840544811.html
1200,2,41.292781,-72.942569,BRAND NEW -ONE OF A KIND - 2 BR APT.,2019-03-05 12:50:16,6834093669,https://newhaven.craigslist.org/apa/d/new-haven-brand-new-one-of-kind-2-br-apt/6834093669.html
1200,2,41.292781,-72.942569,BEAUTIFUL BRAND NEW APT. FOR RENT,2019-03-01 14:21:21,6831139224,https://newhaven.craigslist.org/apa/d/new-haven-beautiful-brand-new-apt-for/6831139224.html
2000,4,41.312606,-72.940735,SPACIOUS 4 BR 2 FULL BATH SINGLE FAMILY HOUSE NOW AVAILABLE!!,2019-03-25 14:30:22,6844483720,https://newhaven.craigslist.org/apa/d/new-haven-spacious-4-br-2-full-bath/6844483720.html
2000,4,41.312606,-72.940735,SPACIOUS 4 BR 2 FULL BATH SINGLE FAMILY HOUSE NOW AVAILABLE,2019-03-25 11:08:55,6847631373,https://newhaven.craigslist.org/apa/d/new-haven-spacious-4-br-2-full-bath/6847631373.html
2000,4,41.312606,-72.940735,SINGLE FAMILY 4BR 2BATH,2019-03-24 22:01:39,6849640294,https://newhaven.craigslist.org/apa/d/new-haven-single-family-4br-2bath/6849640294.html
2000,4,41.312606,-72.940735,SINGLE FAMILY 4BR 2BATH,2019-03-24 22:01:16,6849640104,https://newhaven.craigslist.org/apa/d/new-haven-single-family-4br-2bath/6849640104.html
1100,3,41.30722,-72.947955,BEAUTIFUL COZY 3 BR APARTMENT IN A QUIET AREA NOW AVAILABLE!!,2019-03-25 14:30:16,6844484104,https://newhaven.craigslist.org/apa/d/new-haven-beautiful-cozy-3-br-apartment/6844484104.html
1150,3,41.30722,-72.947955,BEAUTIFUL COZY 3 BR APARTMENT ON THE 1ST FLOOR NOW AVAILABLE!!,2019-03-25 14:30:05,6844484728,https://newhaven.craigslist.org/apa/d/new-haven-beautiful-cozy-3-br-apartment/6844484728.html
1150,3,41.30722,-72.947955,BEAUTIFUL COZY 3 BR APARTMENT ON THE 1ST FLOOR IN A QUIET AREA NOW AVA,2019-03-25 11:08:10,6847616592,https://newhaven.craigslist.org/apa/d/new-haven-beautiful-cozy-3-br-apartment/6847616592.html
1150,3,41.30722,-72.947955,3BR **DON'T MISS IT**,2019-03-24 21:59:52,6849639391,https://newhaven.craigslist.org/apa/d/new-haven-3br-dont-miss-it/6849639391.html
2100,3,41.293068,-72.963425,"Immaculate 3 BR, 1.5 Bath - Single Family Home Walk to UNH !",2019-03-25 13:54:22,6850097509,https://newhaven.craigslist.org/apa/d/immaculate-3-br-15-bath-single-family/6850097509.html
2040,3,41.313179,-72.934547,Large 3 bedroom near Yale central campus for June 1,2019-03-25 13:18:54,6845151395,https://newhaven.craigslist.org/apa/d/new-haven-large-3-bedroom-near-yale/6845151395.html
1610,2,41.307621,-72.938444,"Two bedroom townhouse, spacious apartment near Yale for August 1",2019-03-25 13:18:35,6830410476,https://newhaven.craigslist.org/apa/d/new-haven-two-bedroom-townhouse/6830410476.html
1150,1,41.307621,-72.938444,"One bedroom, garden level with patio, Yale area for August 1",2019-03-22 11:04:31,6836724174,https://newhaven.craigslist.org/apa/d/new-haven-one-bedroom-garden-level-with/6836724174.html
2500,4,41.307621,-72.938444,"Furnished 4 BR, hardwood throughout, Yale area for August 1",2019-03-21 13:51:56,6846925363,https://newhaven.craigslist.org/apa/d/new-haven-furnished-4-br-hardwood/6846925363.html
1580,2,41.327388,-72.922343,"two-bedroom townhouse, Hooker School, East Rock, Prospect St.",2019-03-25 13:12:10,6850050016,https://newhaven.craigslist.org/apa/d/new-haven-two-bedroom-townhouse-hooker/6850050016.html
1350,2,41.319825,-72.928073,"Cute & Bright - Walk to: Science Park, Yale, SOM, FES, DIV, East Rock",2019-03-25 13:07:52,6830253494,https://newhaven.craigslist.org/apa/d/cute-bright-walk-to-science-park-yale/6830253494.html
1140,1,41.516063,-72.794631,ONE MONTH FREE!,2019-03-25 12:53:48,6835695436,https://newhaven.craigslist.org/apa/d/meriden-one-month-free/6835695436.html
1100,1,41.20254,-73.063807,"Milford, CT. . .Cross the street to the beach!",2019-03-25 12:49:22,6850025088,https://newhaven.craigslist.org/apa/d/milford-milford-ct-cross-the-street-to/6850025088.html
1150,2,41.341655,-72.945835,2BRs condo w/heat &hot water included in the rent,2019-03-25 13:13:28,6850051534,https://newhaven.craigslist.org/apa/d/new-haven-2brs-condo-heat-hot-water/6850051534.html
1275,2,41.341712,-72.945434,Pine Rock Ave.....Nice CONDO.....**Heat / Hot Water INCLUDED !,2019-03-25 12:45:17,6850020453,https://newhaven.craigslist.org/apa/d/new-haven-pine-rock-avenice-condoheat/6850020453.html
1275,2,41.321888,-72.91776,"East Rock, Spacious apartment, Includes Heat & Hot/w.",2019-03-25 12:33:44,6838481616,https://newhaven.craigslist.org/apa/d/new-haven-east-rock-spacious-apartment/6838481616.html
2000,2,41.258175,-72.94234,"Stunning condo, Great location, Off St parking.",2019-03-25 12:32:26,6846719263,https://newhaven.craigslist.org/apa/d/west-haven-stunning-condo-great/6846719263.html
1000,1,41.316846,-72.914666,"East Rock, Spacious apt in a House, June, Off St parking",2019-03-25 12:31:41,6833305883,https://newhaven.craigslist.org/apa/d/new-haven-east-rock-spacious-apt-in/6833305883.html
1500,1,41.316788,-72.914551,"East Rock, New renovation, June, Parking.",2019-03-24 12:46:05,6841298628,https://newhaven.craigslist.org/apa/d/new-haven-east-rock-new-renovation-june/6841298628.html
990,2,41.315929,-72.946981,"Spacious apartment in a house, Convenient location",2019-03-25 12:26:55,6833291385,https://newhaven.craigslist.org/apa/d/new-haven-spacious-apartment-in-house/6833291385.html
1150,3,41.535773,-72.793657,3 Bedroom apt 3rd floor,2019-03-25 12:26:23,6849998797,https://newhaven.craigslist.org/apa/d/meriden-3-bedroom-apt-3rd-floor/6849998797.html
1700,2,41.311574,-72.919994,2 BR Apartment East Rock Downtown border,2019-03-25 12:15:04,6849985574,https://newhaven.craigslist.org/apa/d/new-haven-2-br-apartment-east-rock/6849985574.html
1295,2,41.280692,-72.827805,**Branford** Spacious 2 Bed /1 Bath Apartment,2019-03-25 12:11:11,6847606731,https://newhaven.craigslist.org/apa/d/branford-branford-spacious-2-bed-1-bath/6847606731.html
1725,2,41.280692,-72.827805,*Branford* Coming soon*2br/1ba remodeled condo,2019-03-25 12:00:42,6836373544,https://newhaven.craigslist.org/apa/d/branford-branford-coming-soon2br-1ba/6836373544.html
1200,2,41.270092,-72.836744,Immaculate 2 bedroom ranch style condo. remodeled bathroom,2019-03-25 11:43:15,6847232961,https://newhaven.craigslist.org/apa/d/branford-immaculate-2-bedroom-ranch/6847232961.html
2950,3,41.465012,-73.398013,Beautiful Home in Brookfield 3/4 Beds-2.5 garage-3.5 Baths,2019-03-25 11:24:24,6835663284,https://newhaven.craigslist.org/apa/d/brookfield-beautiful-home-in-brookfield/6835663284.html
1250,1,41.308881,-72.937641,1 BDRM W/ SEPARATE STUDY JUST WALK TO HOSPITAL & CAMPUS (INCLS UTILS),2019-03-25 11:49:53,6849956497,https://newhaven.craigslist.org/apa/d/new-haven-1-bdrm-separate-study-just/6849956497.html
1175,1,41.308881,-72.937641,1BM IN UNIQUE BLDG NEAR YALE CAMPUS & HOSPITAL (UTILS INC),2019-03-25 11:22:00,6830309274,https://newhaven.craigslist.org/apa/d/new-haven-1bm-in-unique-bldg-near-yale/6830309274.html
1580,2,41.308824,-72.937699,2 BDRM NEAR YALE CAMPUS & HOSPITAL (INCLUDES UTILS),2019-03-25 11:21:33,6830291412,https://newhaven.craigslist.org/apa/d/new-haven-2-bdrm-near-yale-campus/6830291412.html
1250,1,41.308881,-72.937641,1 BM W/ STUDY NEAR YALE CAMPUS & HOSPITAL(INCL HEAT/HT WTR),2019-03-25 11:21:27,6830244023,https://newhaven.craigslist.org/apa/d/new-haven-1-bm-study-near-yale-campus/6830244023.html
895,0,41.308652,-72.937699,Spacious studio For Rent YNHH Downtown New Haven,2019-03-12 15:02:29,6834838646,https://newhaven.craigslist.org/apa/d/new-haven-spacious-studio-for-rent-ynhh/6834838646.html
1350,3,41.305616,-72.952023,GORGEOUS 3 BR APARTMENT ON THE 1ST FLOOR NOW AVAILABLE!,2019-03-25 11:07:59,6847512867,https://newhaven.craigslist.org/apa/d/new-haven-gorgeous-3-br-apartment-on/6847512867.html
1150,2,41.327846,-72.934261,TWO BEDROOM ON 1ST FLOOR NOW AVAILABLE,2019-03-25 11:07:50,6847507672,https://newhaven.craigslist.org/apa/d/new-haven-two-bedroom-on-1st-floor-now/6847507672.html
549,3,41.317075,-72.943543,New Special !! 3bed/2.5bath new flooring and eat in kitchen!!!,2019-03-25 11:04:09,6847909003,https://newhaven.craigslist.org/apa/d/new-haven-new-special-3bed-25bath-new/6847909003.html
1200,1,41.273072,-72.941538,Gorgeous Loft in a 3-Family Mansion,2019-03-25 10:49:55,6849890571,https://newhaven.craigslist.org/apa/d/west-haven-gorgeous-loft-in-3-family/6849890571.html
1974,3,41.323664,-72.912317,Lovely and Large 3 bedroom in East Rock,2019-03-25 13:55:07,6850098295,https://newhaven.craigslist.org/apa/d/new-haven-lovely-and-large-3-bedroom-in/6850098295.html
1975,3,41.323664,-72.912259,Lovely and Large 3 bedroom in East Rock,2019-03-25 13:52:29,6850095544,https://newhaven.craigslist.org/apa/d/new-haven-lovely-and-large-3-bedroom-in/6850095544.html
1450,2,41.323606,-72.912603,Spacious and unique 2 bedroom in East Rock,2019-03-25 10:48:13,6841447413,https://newhaven.craigslist.org/apa/d/new-haven-spacious-and-unique-2-bedroom/6841447413.html
1450,2,41.323606,-72.912603,Spacious and unique 2 bedroom in East Rock,2019-03-21 12:42:41,6841451731,https://newhaven.craigslist.org/apa/d/new-haven-spacious-and-unique-2-bedroom/6841451731.html
1575,2,41.320169,-72.911801,Beautiful renovated 2 bedroom in old Victorian in East Rock,2019-03-25 10:47:57,6840546828,https://newhaven.craigslist.org/apa/d/new-haven-beautiful-renovated-2-bedroom/6840546828.html
1575,2,41.320169,-72.911801,Beautiful renovated 2 bedroom in East Rock,2019-03-21 12:40:24,6840632752,https://newhaven.craigslist.org/apa/d/new-haven-beautiful-renovated-2-bedroom/6840632752.html
1695,2,41.318393,-72.91289,Lovely and Bright 2 bedroom in East Rock,2019-03-25 10:48:05,6842209462,https://newhaven.craigslist.org/apa/d/new-haven-lovely-and-bright-2-bedroom/6842209462.html
1595,2,41.318278,-72.912087,Lovely Apartment in Quiet 3 Family House (East Rock),2019-03-25 10:47:35,6833459042,https://newhaven.craigslist.org/apa/d/new-haven-lovely-apartment-in-quiet-3/6833459042.html
1695,2,41.318278,-72.912832,Lovely and Bright 2 bedroom in East Rock,2019-03-21 12:42:49,6842226270,https://newhaven.craigslist.org/apa/d/new-haven-lovely-and-bright-2-bedroom/6842226270.html
1595,2,41.318278,-72.912087,Lovely Apartment in Quiet 3 Family House (East Rock),2019-03-21 12:41:02,6833463234,https://newhaven.craigslist.org/apa/d/new-haven-lovely-apartment-in-quiet-3/6833463234.html
1500,2,41.313293,-72.918447,"East Rock, Spacious apt in a house, June.",2019-03-25 12:29:07,6847768583,https://newhaven.craigslist.org/apa/d/new-haven-east-rock-spacious-apt-in/6847768583.html
995,0,41.313236,-72.918104,Beautiful studio in East Rock,2019-03-25 10:47:49,6836780248,https://newhaven.craigslist.org/apa/d/new-haven-beautiful-studio-in-east-rock/6836780248.html
925,0,41.313179,-72.918562,Charming Studio in East Rock Neighborhood,2019-03-25 10:47:17,6830971236,https://newhaven.craigslist.org/apa/d/new-haven-charming-studio-in-east-rock/6830971236.html
895,0,41.313179,-72.918562,Quiet & Charming East Rock Studio,2019-03-25 10:47:12,6830971006,https://newhaven.craigslist.org/apa/d/new-haven-quiet-charming-east-rock/6830971006.html
2400,3,41.313293,-72.918447,"East Rock, Large apt in a house, June.",2019-03-22 13:56:03,6847759127,https://newhaven.craigslist.org/apa/d/new-haven-east-rock-large-apt-in-house/6847759127.html
895,0,41.313179,-72.918562,Bright & Quiet Studio in East Rock,2019-03-21 12:41:40,6835576951,https://newhaven.craigslist.org/apa/d/new-haven-bright-quiet-studio-in-east/6835576951.html
925,0,41.313179,-72.918562,Second floor Studio in East Rock Neighborhood,2019-03-21 12:41:33,6835576783,https://newhaven.craigslist.org/apa/d/new-haven-second-floor-studio-in-east/6835576783.html
995,0,41.313236,-72.918046,Gorgeous studio in East Rock,2019-03-21 12:41:27,6836769109,https://newhaven.craigslist.org/apa/d/new-haven-gorgeous-studio-in-east-rock/6836769109.html
2700,3,41.314955,-72.915984,Newly Renovated Private 3 Bedroom & 2 Bath Suite,2019-03-25 10:46:59,6830955756,https://newhaven.craigslist.org/apa/d/new-haven-newly-renovated-private-3/6830955756.html
2200,2,41.314955,-72.915926,AWESOME LOCATION BY YALE,2019-03-24 09:09:50,6842211616,https://newhaven.craigslist.org/apa/d/new-haven-awesome-location-by-yale/6842211616.html
2200,2,41.314955,-72.915926,Awesome Apartment in East Rock,2019-03-24 09:09:43,6842232823,https://newhaven.craigslist.org/apa/d/new-haven-awesome-apartment-in-east-rock/6842232823.html
1290,2,41.314726,-72.915468,"East Rock, furn., heat/all ut. incl.($1290=$1040 rent+$250 heat/util.)",2019-03-24 00:49:17,6848996400,https://newhaven.craigslist.org/apa/d/new-haven-east-rock-furn-heat-all-ut/6848996400.html
2700,3,41.314955,-72.915984,Newly Renovated Private 3 Bedroom & 2 Bath Suite,2019-03-21 13:59:34,6846933116,https://newhaven.craigslist.org/apa/d/new-haven-newly-renovated-private-3/6846933116.html
2050,2,41.314668,-72.915353,Renovated 2BR Close to SOM! Utilities Inc! AUGUST 1st,2019-03-19 15:26:21,6845354261,https://newhaven.craigslist.org/apa/d/new-haven-renovated-2br-close-to-som/6845354261.html
1675,2,41.314726,-72.915468,"July 1st in East Rock, Large 2 bedroom",2019-03-05 13:11:59,6834117705,https://newhaven.craigslist.org/apa/d/july-1st-in-east-rock-large-2-bedroom/6834117705.html
1500,2,41.320742,-72.91077,Charming & Cozy 2 bedroom 1 bath,2019-03-25 10:46:49,6830955497,https://newhaven.craigslist.org/apa/d/new-haven-charming-cozy-2-bedroom-1-bath/6830955497.html
1500,2,41.320742,-72.91077,Charming & Cozy 2 bedroom 1 bath,2019-03-21 12:41:48,6835637066,https://newhaven.craigslist.org/apa/d/new-haven-charming-cozy-2-bedroom-1-bath/6835637066.html
1575,2,41.317476,-72.910197,Beautiful bright 2 bedroom in East Rock,2019-03-25 10:46:46,6839881548,https://newhaven.craigslist.org/apa/d/new-haven-beautiful-bright-2-bedroom-in/6839881548.html
1575,2,41.317476,-72.910197,Fantastic 2 bedroom in East Rock,2019-03-21 12:40:13,6839887861,https://newhaven.craigslist.org/apa/d/new-haven-fantastic-2-bedroom-in-east/6839887861.html
1450,2,41.317304,-72.910598,East Rock 2-BR Two Bedroom apt in a two family house,2019-03-19 13:52:28,6845262573,https://newhaven.craigslist.org/apa/d/new-haven-east-rock-2-br-two-bedroom/6845262573.html
1575,1,41.313293,-72.914723,Gorgeous brick 1 bedroom in East Rock,2019-03-25 10:46:32,6842332420,https://newhaven.craigslist.org/apa/d/new-haven-gorgeous-brick-1-bedroom-in/6842332420.html
1575,1,41.31335,-72.914666,Charming Brick 1 bedroom in East Rock,2019-03-21 12:42:54,6842336100,https://newhaven.craigslist.org/apa/d/new-haven-charming-brick-1-bedroom-in/6842336100.html
1325,0,41.316215,-72.908822,East Rock on Yale Shuttle in Historic Building av 6/1,2019-03-25 10:42:12,6838641040,https://newhaven.craigslist.org/apa/d/new-haven-east-rock-on-yale-shuttle-in/6838641040.html
1150,3,41.484779,-73.046904,"★ Great 3bd/$1,150 Naugatuck apartment for rent",2019-03-25 10:31:17,6849874021,https://newhaven.craigslist.org/apa/d/naugatuck-great-3bd-1150-naugatuck/6849874021.html
1950,2,41.455616,-72.839608,Beautiful private end unit condo!,2019-03-25 10:19:35,6840612545,https://newhaven.craigslist.org/apa/d/wallingford-beautiful-private-end-unit/6840612545.html
700,1,41.532335,-72.7936,1 BR Apartment- Immediate Availability!,2019-03-25 10:18:22,6833364497,https://newhaven.craigslist.org/apa/d/meriden-1-br-apartment-immediate/6833364497.html
1365,2,41.310199,-72.919708,$1365 2 Bd - MOVE-IN SPECIAL,2019-03-25 10:16:50,6834926194,https://newhaven.craigslist.org/apa/d/new-haven-bd-move-in-special/6834926194.html
1275,2,41.306074,-72.887622,"2 BR 1 BA Renovated Kitchen, WD, Spacious!",2019-03-25 10:13:13,6841364306,https://newhaven.craigslist.org/apa/d/new-haven-2-br-1-ba-renovated-kitchen/6841364306.html
1025,1,41.392132,-73.076985,Beautiful Remodeled 1 Bedroom Condo in small complex,2019-03-25 10:11:29,6847034016,https://newhaven.craigslist.org/apa/d/beautiful-remodeled-1-bedroom-condo-in/6847034016.html
1600,2,41.30447,-72.940735,$1600 / 2br - Steps from YNHH,2019-03-25 10:04:49,6849849062,https://newhaven.craigslist.org/apa/d/new-haven-br-steps-from-ynhh/6849849062.html
1150,2,41.336613,-72.899024,2 Bdrm Apartment in Hamden (Available Now),2019-03-25 09:49:40,6849831916,https://newhaven.craigslist.org/apa/d/2-bdrm-apartment-in-hamden-available-now/6849831916.html
1400,2,41.090814,-73.418869,What an Amazing 2BD Unit in an Ultra-quiet Neighborhood!,2019-03-25 09:26:28,6830099606,https://newhaven.craigslist.org/apa/d/norwalk-what-an-amazing-2bd-unit-in-an/6830099606.html
1400,2,41.090814,-73.418869,Come and Live Here in a 2BD 1BA Apt Unit with Awesome Features!,2019-03-25 09:26:22,6830097839,https://newhaven.craigslist.org/apa/d/norwalk-come-and-live-here-in-2bd-1ba/6830097839.html
1400,2,41.090814,-73.418869,Live Like a Royalty in a European Inspired Bldg with Centralized A/C.,2019-03-25 09:26:17,6830096985,https://newhaven.craigslist.org/apa/d/norwalk-live-like-royalty-in-european/6830096985.html
1400,2,41.090814,-73.418869,2BD Gorgeous Unit in European Inspired Bldg with Cable Jacks Installed,2019-03-25 09:26:10,6830095787,https://newhaven.craigslist.org/apa/d/norwalk-2bd-gorgeous-unit-in-european/6830095787.html
1400,2,41.090814,-73.418869,700 Sq ft Unit! Don't Fuss with the Bus Close to Train Station.,2019-03-21 09:41:30,6830861883,https://newhaven.craigslist.org/apa/d/norwalk-700-sq-ft-unit-dont-fuss-with/6830861883.html
1400,2,41.090814,-73.418869,2BD Apt Unit That Suits Your Active Lifestyle!!,2019-03-21 09:41:23,6830860005,https://newhaven.craigslist.org/apa/d/norwalk-2bd-apt-unit-that-suits-your/6830860005.html
1400,2,41.090814,-73.418869,STOP! If You Haven't Seen This 2BD Unit Very Close to Down Town!,2019-03-21 09:41:16,6830859396,https://newhaven.craigslist.org/apa/d/norwalk-stop-if-you-havent-seen-this/6830859396.html
1400,2,41.090814,-73.418869,You'll Be Eager To Come Home To This Oasis!,2019-03-21 09:41:09,6830858604,https://newhaven.craigslist.org/apa/d/norwalk-youll-be-eager-to-come-home-to/6830858604.html
1400,2,41.176987,-73.197764,For the professional in you.,2019-03-25 09:26:16,6849813953,https://newhaven.craigslist.org/apa/d/bridgeport-for-the-professional-in-you/6849813953.html
1400,2,41.176987,-73.197764,Are you reading this ??????????????????????,2019-03-25 09:21:45,6849815043,https://newhaven.craigslist.org/apa/d/bridgeport-are-you-reading-this/6849815043.html
1400,2,41.176987,-73.197764,Just bring your cloths we take care of the rest.,2019-03-25 09:20:54,6849814415,https://newhaven.craigslist.org/apa/d/bridgeport-just-bring-your-cloths-we/6849814415.html
1400,2,41.176987,-73.197764,Let us pamper you.,2019-03-25 09:19:30,6849813325,https://newhaven.craigslist.org/apa/d/bridgeport-let-us-pamper-you/6849813325.html
1250,0,41.564249,-73.064208,3BR Colonial House with EZ Owner Financing For Less Than Your Rent!,2019-03-25 09:16:15,6839178804,https://newhaven.craigslist.org/apa/d/waterbury-3br-colonial-house-with-ez/6839178804.html
1075,2,41.349504,-72.933745,"HAMDEN--2ND FLOOR 2BR,1BA",2019-03-25 09:04:09,6849802327,https://newhaven.craigslist.org/apa/d/hamden-hamden-2nd-floor-2br1ba/6849802327.html
1150,2,41.197327,-73.139609,"Stratford, 2BR, 1BA, 2nd Floor",2019-03-25 09:03:39,6843126800,https://newhaven.craigslist.org/apa/d/stratford-stratford-2br-1ba-2nd-floor/6843126800.html
7900,4,41.192055,-73.083631,LUXURIOUS PANORAMIC BEACH FRONT HOME FOR RENT,2019-03-25 09:03:30,6827308202,https://newhaven.craigslist.org/apa/d/stratford-luxurious-panoramic-beach/6827308202.html
800,3,41.330024,-72.93535,Gorgeous newly renovated single family home,2019-03-25 09:02:44,6849801465,https://newhaven.craigslist.org/apa/d/new-haven-gorgeous-newly-renovated/6849801465.html
1495,3,41.796583,-72.52918,3 Bdrm with Spacious Yard,2019-03-25 08:41:12,6845208438,https://newhaven.craigslist.org/apa/d/manchester-3-bdrm-with-spacious-yard/6845208438.html
900,1,41.271868,-72.819555,"Branford, CT First Floor",2019-03-25 08:26:28,6844831706,https://newhaven.craigslist.org/apa/d/branford-branford-ct-first-floor/6844831706.html
2200,2,41.111899,-73.419785,2 Bedroom Townhouse,2019-03-25 08:24:15,6841091950,https://newhaven.craigslist.org/apa/d/norwalk-2-bedroom-townhouse/6841091950.html
1250,3,41.330482,-72.972363,"3 Bed, 1 Bath Apt for $1,250.00",2019-03-25 07:25:16,6849762349,https://newhaven.craigslist.org/apa/d/new-haven-3-bed-1-bath-apt-for/6849762349.html
1300,2,41.313064,-72.888023,Waterfront Apartment,2019-03-25 07:15:33,6849759915,https://newhaven.craigslist.org/apa/d/new-haven-waterfront-apartment/6849759915.html
1250,2,41.404565,-72.454237,"CHESTER; BEAUTIFUL LRG 2 BR, FP, D/W, W/D, PRIV ENT,  WALK TO VILLAGE",2019-03-25 06:17:09,6849749306,https://newhaven.craigslist.org/apa/d/chester-chester-beautiful-lrg-2-br-fp-w/6849749306.html
1400,3,41.321486,-72.861438,Spacious 1st. floor apartment in quiet neighborhood,2019-03-25 06:00:35,6849747113,https://newhaven.craigslist.org/apa/d/new-haven-spacious-1st-floor-apartment/6849747113.html
1850,3,41.238293,-72.98703,Beautiful 3 Bed/2 bath in the West Shore,2019-03-25 01:30:09,6841013133,https://newhaven.craigslist.org/apa/d/west-haven-beautiful-3-bed-2-bath-in/6841013133.html
725,1,41.287166,-72.815315,Mobile Home for Rent,2019-03-25 01:00:59,6834313333,https://newhaven.craigslist.org/apa/d/branford-mobile-home-for-rent/6834313333.html
386,2,41.672137,-72.914551,2BR homes in mobile home village,2019-03-24 22:31:15,6849654191,https://newhaven.craigslist.org/apa/d/bristol-2br-homes-in-mobile-home-village/6849654191.html
1350,3,41.318221,-72.951679,3BR - **NEW**,2019-03-24 22:00:57,6849639950,https://newhaven.craigslist.org/apa/d/new-haven-3br-new/6849639950.html
1350,3,41.318221,-72.951679,3BR - **NEW**,2019-03-24 22:00:18,6849639592,https://newhaven.craigslist.org/apa/d/new-haven-3br-new/6849639592.html
1300,4,41.312778,-72.946637,"*4 Bedroom Apartment Available - Winthrop Ave., New Haven*",2019-03-24 21:45:55,6849632257,https://newhaven.craigslist.org/apa/d/new-haven-4-bedroom-apartment-available/6849632257.html
548,4,41.306017,-72.929735,!! Ultimate Escape !! 4Bd/2Ba with All Appliance and Natural Light!!!,2019-03-24 21:15:42,6831310019,https://newhaven.craigslist.org/apa/d/new-haven-ultimate-escape-4bd-2ba-with/6831310019.html
2300,6,41.293698,-72.936954,6BR / 3BA NEWLY RENOVATED SINGLE FAMILY HOUSE!!! - NEAR DOWNTOWN/YNHH,2019-03-24 18:56:03,6833257548,https://newhaven.craigslist.org/apa/d/new-haven-6br-3ba-newly-renovated/6833257548.html
1200,6,41.307105,-72.899024,Six Bedroom Apartment for rent,2019-03-24 18:53:51,6849528564,https://newhaven.craigslist.org/apa/d/new-haven-six-bedroom-apartment-for-rent/6849528564.html
1050,2,41.31547,-72.962852,"westville new kit& bath, gas,eik,o/s prk, yrd,storage,",2019-03-24 17:59:32,6834589823,https://newhaven.craigslist.org/apa/d/new-haven-westville-new-kit-bath/6834589823.html
1600,4,42.130159,-72.745299,4 Bedroom 1 Bath 1200 Sq. Ft. Cape,2019-03-24 17:47:45,6832799544,https://newhaven.craigslist.org/apa/d/westfield-4-bedroom-1-bath-1200-sq-ft/6832799544.html
1700,5,42.116294,-72.757905,"HOUSE FOR RENT IN WESTFIELD MA 4 beds 2 baths 1,800 sq. ft.",2019-03-24 17:45:52,6839409094,https://newhaven.craigslist.org/apa/d/westfield-house-for-rent-in-westfield/6839409094.html
2400,4,41.103591,-73.409759,4 bdrm apt,2019-03-24 17:38:25,6849474869,https://newhaven.craigslist.org/apa/d/norwalk-4-bdrm-apt/6849474869.html
1250,1,41.255482,-72.851755,Lg 1 Bed rm walk to beach 10 min to Yale in safe resid. neighborhood,2019-03-24 17:26:51,6843771245,https://newhaven.craigslist.org/apa/d/east-haven-lg-1-bed-rm-walk-to-beach-10/6843771245.html
700,1,41.395971,-73.154678,2nd floor of house in oxford,2019-03-24 17:16:54,6849458635,https://newhaven.craigslist.org/apa/d/stevenson-2nd-floor-of-house-in-oxford/6849458635.html
1355,1,41.309168,-72.923088,$1355 1 BD|1Ba Property New Haven! STYLISH KITCHEN ~ CEILING FANS,2019-03-24 17:16:22,6832783847,https://newhaven.craigslist.org/apa/d/new-haven-bd1ba-property-new-haven/6832783847.html
1600,2,41.258175,-72.845223,2 Bedroom Oceanfront Short Beach Apartment!,2019-03-24 17:12:40,6849455415,https://newhaven.craigslist.org/apa/d/east-haven-2-bedroom-oceanfront-short/6849455415.html
1375,3,41.353687,-73.082772,"Huge❤️ 3 Bedroom apartment, SECTION 8 WELCOMED",2019-03-24 16:33:05,6845758138,https://newhaven.craigslist.org/apa/d/ansonia-huge-3-bedroom-apartment/6845758138.html
1450,3,41.18157,-73.157428,Beautiful 3 Bedroom Single Family House Close to Stratford,2019-03-24 16:28:27,6828534173,https://newhaven.craigslist.org/apa/d/bridgeport-beautiful-3-bedroom-single/6828534173.html
1495,2,41.186899,-73.134452,"Two Bed Room Apt. Includes Heat&Hot Water, Basic Cable, and Internet",2019-03-24 16:28:22,6834786620,https://newhaven.craigslist.org/apa/d/stratford-two-bed-room-apt-includes/6834786620.html
995,2,41.289172,-72.97517,2nd floor 2br - $995/mo,2019-03-24 16:05:38,6836380660,https://newhaven.craigslist.org/apa/d/west-haven-2nd-floor-2br-mo/6836380660.html
1590,3,41.388121,-73.164705,3 Bedroom house on Private Road,2019-03-24 16:05:00,6849401146,https://newhaven.craigslist.org/apa/d/stevenson-3-bedroom-house-on-private/6849401146.html
1900,2,41.403821,-72.898222,Beautifully maintained 2 BR 1.5 BA condo in Hamden!,2019-03-24 15:43:02,6835034162,https://newhaven.craigslist.org/apa/d/wallingford-beautifully-maintained-2-br/6835034162.html
1225,2,41.268259,-72.894555,Sunny 2 bedroom 2nd floor apartment located minutes to Lighthouse Pt!,2019-03-24 15:42:56,6836540799,https://newhaven.craigslist.org/apa/d/east-haven-sunny-2-bedroom-2nd-floor/6836540799.html
1225,2,41.268431,-72.894383,NEW JUNE RENTAL! SUNNY 2BR FOR RENT!,2019-03-21 16:36:28,6840496241,https://newhaven.craigslist.org/apa/d/east-haven-new-june-rental-sunny-2br/6840496241.html
1350,1,41.291693,-72.896159,Spacious open concept living with 12 ft. ceilings!,2019-03-24 15:42:51,6836513417,https://newhaven.craigslist.org/apa/d/new-haven-spacious-open-concept-living/6836513417.html
2000,2,41.311517,-72.91627,Stylish 2 bedroom + office in amazing location! Available NOW!,2019-03-24 15:42:39,6834845566,https://newhaven.craigslist.org/apa/d/new-haven-stylish-2-bedroom-office-in/6834845566.html
2000,3,41.320283,-72.917817,EAST ROCK: Spacious 3 BR 1 BA w/ offstreet parking! Available NOW!,2019-03-24 15:42:15,6825789897,https://newhaven.craigslist.org/apa/d/new-haven-east-rock-spacious-3-br-1-ba/6825789897.html
2000,3,41.320283,-72.917416,Updated 3br w/ parking in East Rock! Available now!,2019-03-21 16:27:43,6828151364,https://newhaven.craigslist.org/apa/d/new-haven-updated-3br-parking-in-east/6828151364.html
2000,3,41.320283,-72.917473,Large 3 Bedroom apartment in Great East Rock Area,2019-03-21 11:02:48,6839512855,https://newhaven.craigslist.org/apa/d/new-haven-large-3-bedroom-apartment-in/6839512855.html
1000,1,41.320283,-72.917015,"$1000/mo Charming 1 Bedroom in East Rock, New Haven",2019-03-03 14:53:43,6832616735,https://newhaven.craigslist.org/apa/d/new-haven-1000-mo-charming-1-bedroom-in/6832616735.html
2200,3,41.319367,-72.912202,EAST ROCK: Renovated 3 BR w/ hw flrs & AC! June 1st!,2019-03-24 15:42:03,6828764218,https://newhaven.craigslist.org/apa/d/new-haven-east-rock-renovated-3-br-hw/6828764218.html
1800,2,41.324982,-72.91266,Beautifully renovated 2 bedroom apartment located in East Rock!,2019-03-24 15:41:09,6835602752,https://newhaven.craigslist.org/apa/d/new-haven-beautifully-renovated-2/6835602752.html
2200,2,41.32756,-72.915239,"East Rock, Beautiful apartment, Great location, Parking, Laundry",2019-03-25 12:34:56,6847682692,https://newhaven.craigslist.org/apa/d/new-haven-east-rock-beautiful-apartment/6847682692.html
2200,2,41.32756,-72.915239,EAST ROCK-BEAUTIFULLY REMODELED 2 BR WITH LAUNDRY & PARKING!,2019-03-24 15:41:03,6835624996,https://newhaven.craigslist.org/apa/d/new-haven-east-rock-beautifully/6835624996.html
2200,2,41.32756,-72.915239,2 BEDROOM WITH LAUNDRY & OFF STREET PARKING IN EAST ROCK!,2019-03-24 14:53:01,6844563224,https://newhaven.craigslist.org/apa/d/new-haven-2-bedroom-with-laundry-off/6844563224.html
950,1,41.456074,-72.817034,"Cozy, updated 1 BR 1st Fl 3 family close to Choate",2019-03-24 15:01:34,6849347213,https://newhaven.craigslist.org/apa/d/wallingford-cozy-updated-1-br-1st-fl-3/6849347213.html
1295,0,41.332545,-72.92624,"3-4 br townhouse style apt (will accept 2, 3, or 4 br voucher)",2019-03-24 14:59:19,6834969244,https://newhaven.craigslist.org/apa/d/new-haven-3-4-br-townhouse-style-apt/6834969244.html
1800,2,41.257602,-72.848833,Steps from the beach,2019-03-24 14:58:55,6844365778,https://newhaven.craigslist.org/apa/d/steps-from-the-beach/6844365778.html
1350,1,41.30659,-72.892091,LOWER EAST ROCK CHARMING HISTORIC BROWNSTONE!INCLUDES HEAT& HOT WATER!,2019-03-24 14:52:55,6840689329,https://newhaven.craigslist.org/apa/d/new-haven-lower-east-rock-charming/6840689329.html
1950,1,41.308767,-72.916327,1 BEDROOM IN WOOSTER SQUARE W/A.C. & PARKING!,2019-03-24 14:52:04,6846319597,https://newhaven.craigslist.org/apa/d/new-haven-1-bedroom-in-wooster-square/6846319597.html
2200,2,42.420763,-71.090254,Large 2-Bedroom  Apt,2019-03-24 13:14:11,6849252580,https://newhaven.craigslist.org/apa/d/medford-large-2-bedroom-apt/6849252580.html
700,1,41.491712,-73.048566,3rd floor apartment for rent,2019-03-24 13:03:48,6849242192,https://newhaven.craigslist.org/apa/d/naugatuck-3rd-floor-apartment-for-rent/6849242192.html
1200,2,41.317189,-72.948871,"Huge apartment, Off St parking, Backyard.",2019-03-24 12:45:46,6832509920,https://newhaven.craigslist.org/apa/d/new-haven-huge-apartment-off-st-parking/6832509920.html
1250,1,41.30934,-72.933287,Cozy Furnished 1BR/1.5BA Unit in Downtown Home!,2019-03-25 10:52:30,6844292842,https://newhaven.craigslist.org/apa/d/new-haven-cozy-furnished-1br-15ba-unit/6844292842.html
1000,1,41.309111,-72.933459,"Downtown, Charming apt in the Building, June.",2019-03-24 12:45:19,6838121891,https://newhaven.craigslist.org/apa/d/new-haven-downtown-charming-apt-in-the/6838121891.html
1000,0,41.309111,-72.933459,"Downtown, Large Studio,  Available June, Convenient location.",2019-03-22 13:32:09,6847730593,https://newhaven.craigslist.org/apa/d/new-haven-downtown-large-studio/6847730593.html
1400,2,41.309225,-72.933402,"Downtown, Includes electric, Available June.",2019-03-22 13:12:52,6847710619,https://newhaven.craigslist.org/apa/d/new-haven-downtown-includes-electric/6847710619.html
1100,1,41.309168,-72.933287,"Modern Garden Apartment Downtown, Avail. 6/1",2019-03-21 11:18:29,6846764353,https://newhaven.craigslist.org/apa/d/new-haven-modern-garden-apartment/6846764353.html
1600,2,41.325612,-72.913749,"East Rock, Large apt in a courtyard building, July, Newer renovation.",2019-03-24 12:44:44,6833335394,https://newhaven.craigslist.org/apa/d/new-haven-east-rock-large-apt-in/6833335394.html
900,1,41.363484,-72.922229,Apartment for rent,2019-03-24 12:39:28,6849222901,https://newhaven.craigslist.org/apa/d/cheshire-apartment-for-rent/6849222901.html
1750,2,41.309855,-72.884299,Waterfront condo! 2 Bedroom 1/2 Bath w/detached garage!,2019-03-25 10:13:10,6846067233,https://newhaven.craigslist.org/apa/d/new-haven-waterfront-condo-2-bedroom-1/6846067233.html
2300,3,41.309855,-72.884299,Waterfront 2-3 br townhouse w/detached garage! Available immediately!,2019-03-25 10:13:05,6841413865,https://newhaven.craigslist.org/apa/d/new-haven-waterfront-2-3-br-townhouse/6841413865.html
2150,0,41.309855,-72.884299,Spacious 2/3 bedroom townhouse! 2 car garage + laundry!,2019-03-25 10:12:57,6847799815,https://newhaven.craigslist.org/apa/d/new-haven-spacious-2-3-bedroom/6847799815.html
1750,2,41.309798,-72.884356,"Water view condo in exclusive private community in New Haven, CT",2019-03-24 12:39:20,6849222787,https://newhaven.craigslist.org/apa/d/water-view-condo-in-exclusive-private/6849222787.html
2300,3,41.309855,-72.884299,"Historic revival & panoramic waterfront living in New Haven, CT",2019-03-24 12:38:47,6849222321,https://newhaven.craigslist.org/apa/d/new-haven-historic-revival-panoramic/6849222321.html
2300,2,41.309855,-72.884299,***2 bedroom Waterfront condo in exclusive luxury private community***,2019-03-24 12:38:16,6849221847,https://newhaven.craigslist.org/apa/d/new-haven-2-bedroom-waterfront-condo-in/6849221847.html
1750,2,41.309798,-72.884356,"Water view condo in exclusive private community in New Haven, CT",2019-03-24 12:37:43,6849221367,https://newhaven.craigslist.org/apa/d/water-view-condo-in-exclusive-private/6849221367.html
1750,2,41.309798,-72.884356,"Water view condo in exclusive private community in New Haven, CT",2019-03-24 12:37:03,6828851899,https://newhaven.craigslist.org/apa/d/water-view-condo-in-exclusive-private/6828851899.html
2300,3,41.309855,-72.884299,"Historic revival & panoramic waterfront living in New Haven, CT",2019-03-24 12:36:51,6828615597,https://newhaven.craigslist.org/apa/d/new-haven-historic-revival-panoramic/6828615597.html
2300,3,41.309855,-72.884299,"Historic revival & panoramic waterfront living in New Haven, CT",2019-03-24 12:36:41,6828614480,https://newhaven.craigslist.org/apa/d/new-haven-historic-revival-panoramic/6828614480.html
1150,2,41.305157,-72.89679,"""WHEELCHAIR"" ACCESSIBLE 1st Floor.......Pets OK !!...........",2019-03-24 12:22:15,6841995154,https://newhaven.craigslist.org/apa/d/new-haven-wheelchair-accessible-1st/6841995154.html
2100,3,41.321429,-72.974941,+.....RANCH HOUSE in Westville ~~~~ pets possible,2019-03-24 12:22:11,6831246473,https://newhaven.craigslist.org/apa/d/new-haven-ranch-house-in-westville-pets/6831246473.html
1700,2,41.317705,-72.907561,EAST ROCK ~ Renovated on MECHANIC ST...(Pets ok)..*amenities,2019-03-24 12:22:06,6841994361,https://newhaven.craigslist.org/apa/d/new-haven-east-rock-renovated-on/6841994361.html
2700,4,41.365833,-73.122764,Custom Built COLONIAL......*Available Mid 'JUNE',2019-03-24 12:21:53,6846872742,https://newhaven.craigslist.org/apa/d/seymour-custom-built-colonialavailable/6846872742.html
2395,4,41.373969,-73.106721,Split Level RANCH HOUSE located in 'Great Hill'....*Avail in JULY,2019-03-24 12:21:32,6846900360,https://newhaven.craigslist.org/apa/d/seymour-split-level-ranch-house-located/6846900360.html
1685,1,41.299886,-72.592377,"FULLY FURNISHED""/'Sleeps' 2 ~JUNE move in ~ ""FLEXIBLE"" Lease terms",2019-03-24 12:21:27,6847010517,https://newhaven.craigslist.org/apa/d/madison-fully-furnished-sleeps-2-june/6847010517.html
1150,1,41.446563,-72.842301,Route 15 ( Merrit Parkway) Exit 64......NEW APARTMENTS......,2019-03-24 12:20:20,6847084073,https://newhaven.craigslist.org/apa/d/wallingford-route-15-merrit-parkway/6847084073.html
2125,3,41.260008,-72.893352,"~ WATERFRONT ~ Morris Cove Townhouse..... ~ SUNSET'S ""INCLUDED""",2019-03-24 12:20:16,6847098700,https://newhaven.craigslist.org/apa/d/east-haven-waterfront-morris-cove/6847098700.html
2400,3,41.259894,-72.893409,WATERFRONT ~ Fully Furnished ~ ON THE SEAWALL (Morris Cove),2019-03-24 12:20:11,6847105720,https://newhaven.craigslist.org/apa/d/east-haven-waterfront-fully-furnished/6847105720.html
1700,1,41.305616,-72.918218,"Beautiful 1 BR located on Wooster Square Park, New Haven, CT",2019-03-24 12:09:47,6849197568,https://newhaven.craigslist.org/apa/d/new-haven-beautiful-1-br-located-on/6849197568.html
2500,3,41.2678,-72.767129,"Home in Stony Creek, academic year rental",2019-03-24 11:22:12,6849160539,https://newhaven.craigslist.org/apa/d/new-haven-home-in-stony-creek-academic/6849160539.html
1200,3,41.543565,-73.076183,Town Plot Apartment for Rent,2019-03-24 10:47:33,6849135995,https://newhaven.craigslist.org/apa/d/waterbury-town-plot-apartment-for-rent/6849135995.html
1150,2,41.281036,-72.526601,"Clinton 2Bedroom, 5 rooms, 1200 sq.feet",2019-03-24 10:31:29,6830938726,https://newhaven.craigslist.org/apa/d/clinton-clinton-2bedroom-5-rooms-1200/6830938726.html
1100,0,41.564994,-73.000724,3BR Cape House with EZ Owner Financing For Less Than Your Rent!,2019-03-24 09:30:51,6839158993,https://newhaven.craigslist.org/apa/d/waterbury-3br-cape-house-with-ez-owner/6839158993.html
1800,1,41.31421,-72.916327,"Spacious 1 bedroom, heat included",2019-03-24 09:14:17,6839496710,https://newhaven.craigslist.org/apa/d/new-haven-spacious-1-bedroom-heat/6839496710.html
2300,3,41.314611,-72.916958,89 Pearl street East Rock New Haven,2019-03-23 12:54:50,6848520464,https://newhaven.craigslist.org/apa/d/new-haven-89-pearl-street-east-rock-new/6848520464.html
2200,3,41.323205,-72.910942,Super large (2000 sf) 3 bed 1 bath with enclosed balcony in east rock,2019-03-25 09:10:43,6849806970,https://newhaven.craigslist.org/apa/d/new-haven-super-large-2000-sf-3-bed-1/6849806970.html
2400,4,41.323205,-72.910942,East Rock 4 bed room 1 bath room on Orange,2019-03-25 00:14:38,6849692689,https://newhaven.craigslist.org/apa/d/new-haven-east-rock-4-bed-room-1-bath/6849692689.html
2500,3,41.323205,-72.910942,Awesome House in East Rock,2019-03-24 09:10:08,6835591761,https://newhaven.craigslist.org/apa/d/new-haven-awesome-house-in-east-rock/6835591761.html
2500,3,41.318679,-72.913062,Awesome House in East Rock,2019-03-24 09:10:02,6829375068,https://newhaven.craigslist.org/apa/d/new-haven-awesome-house-in-east-rock/6829375068.html
1700,2,41.318393,-72.913176,East Rock 2 Bedroom,2019-03-20 09:34:59,6834724750,https://newhaven.craigslist.org/apa/d/new-haven-east-rock-2-bedroom/6834724750.html
1350,2,41.31358,-72.878856,Apartment for rent,2019-03-24 08:03:32,6846060907,https://newhaven.craigslist.org/apa/d/new-haven-apartment-for-rent/6846060907.html
2100,2,41.316215,-72.916327,"2BR-EAST ROCK-FURNISHED,WALK TO YALE-HOT WATER, HEAT INCLUDED",2019-03-25 10:23:02,6841890137,https://newhaven.craigslist.org/apa/d/new-haven-2br-east-rock-furnishedwalk/6841890137.html
2400,3,41.316215,-72.916327,"3BR-EAST ROCK-WALK TO YALE- FURNISHED,HOT WATER, HEAT INCLUDED",2019-03-24 08:02:27,6825824548,https://newhaven.craigslist.org/apa/d/new-haven-3br-east-rock-walk-to-yale/6825824548.html
2100,3,41.316101,-72.916327,Spacious 3 bedroom so close to everything,2019-03-22 09:23:51,6841909554,https://newhaven.craigslist.org/apa/d/new-haven-spacious-3-bedroom-so-close/6841909554.html
935,2,41.85428,-73.157886,This is the ONE!!,2019-03-24 07:24:50,6832059361,https://newhaven.craigslist.org/apa/d/winchester-center-this-is-the-one/6832059361.html
875,2,41.85428,-73.157886,Here's your next home,2019-03-24 07:24:13,6832062685,https://newhaven.craigslist.org/apa/d/winchester-center-heres-your-next-home/6832062685.html
1395,3,41.439459,-73.426661,Affordable comfort,2019-03-24 07:24:03,6837097481,https://newhaven.craigslist.org/apa/d/brookfield-affordable-comfort/6837097481.html
2800,4,41.317991,-72.909108,big 2 bath East Rock duplex great light and parking August 1,2019-03-24 03:09:20,6845927889,https://newhaven.craigslist.org/apa/d/new-haven-big-2-bath-east-rock-duplex/6845927889.html
1750,2,41.318106,-72.909108,gracious apartment in east rock w parking,2019-03-24 03:05:38,6849018655,https://newhaven.craigslist.org/apa/d/new-haven-gracious-apartment-in-east/6849018655.html
1850,2,41.318049,-72.909165,"Bright, big, beautiful, & available in East Rock, w parking",2019-03-24 03:03:27,6849018370,https://newhaven.craigslist.org/apa/d/new-haven-bright-big-beautiful/6849018370.html
529,4,41.313408,-72.950132,!! Ultimate Escape !! 4Bd/2Ba with All Appliance and Natural Light!!!,2019-03-24 01:06:00,6831310071,https://newhaven.craigslist.org/apa/d/new-haven-ultimate-escape-4bd-2ba-with/6831310071.html
925,2,41.542133,-72.986343,Charming 2 bedroom townhouse in the East End,2019-03-24 00:50:40,6844579762,https://newhaven.craigslist.org/apa/d/waterbury-charming-2-bedroom-townhouse/6844579762.html
875,2,41.54706,-72.993276,Beautiful 2 bedroom located in the East End,2019-03-24 00:50:15,6836711567,https://newhaven.craigslist.org/apa/d/waterbury-beautiful-2-bedroom-located/6836711567.html
975,2,41.541617,-72.988062,Spacious 2 bedroom located in the East End,2019-03-24 00:50:32,6844598656,https://newhaven.craigslist.org/apa/d/waterbury-spacious-2-bedroom-located-in/6844598656.html
925,1,41.541617,-72.988062,Luxurious 1 bedroom located in the East End,2019-03-24 00:50:25,6840657330,https://newhaven.craigslist.org/apa/d/waterbury-luxurious-1-bedroom-located/6840657330.html
1250,2,41.541617,-72.988062,Stunning 2 bedroom townhouse located in the East End,2019-03-24 00:50:10,6840518979,https://newhaven.craigslist.org/apa/d/waterbury-stunning-2-bedroom-townhouse/6840518979.html
900,2,41.560009,-73.002959,Charming 2 bedroom W/ heat & hot water included,2019-03-24 00:50:05,6845344806,https://newhaven.craigslist.org/apa/d/waterbury-charming-2-bedroom-heat-hot/6845344806.html
1325,2,41.346582,-73.073031,Beautiful First Floor 2 bedroom Apartment For Rent,2019-03-23 21:40:55,6843472042,https://newhaven.craigslist.org/apa/d/beautiful-first-floor-2-bedroom/6843472042.html
2400,4,41.281494,-73.028684,House For Rent 2400 SQ. Ft. in Orange,2019-03-23 21:06:57,6845519560,https://newhaven.craigslist.org/apa/d/orange-house-for-rent-2400-sq-ft-in/6845519560.html
900,2,41.450918,-72.829582,1st Floor - 2 bedroom,2019-03-23 19:52:19,6848878942,https://newhaven.craigslist.org/apa/d/wallingford-1st-floor-2-bedroom/6848878942.html
1600,3,41.31209,-72.942168,for Rent,2019-03-23 19:32:02,6848866578,https://newhaven.craigslist.org/apa/d/new-haven-for-rent/6848866578.html
1400,2,41.476701,-73.22412,Southbury CT 55 years and older community apartment,2019-03-23 18:56:00,6832094418,https://newhaven.craigslist.org/apa/d/southbury-southbury-ct-55-years-and/6832094418.html
1800,3,41.476701,-73.22412,3 Bedroom 2 Bath Ranch on 3 acres,2019-03-13 20:02:03,6840873730,https://newhaven.craigslist.org/apa/d/southbury-3-bedroom-2-bath-ranch-on-3/6840873730.html
1200,2,41.328591,-72.967435,"Westville ★ Immaculate 1st Floor, Handicap Accessible! W/D, Parking!",2019-03-23 18:51:37,6843453264,https://newhaven.craigslist.org/apa/d/new-haven-westville-immaculate-1st/6843453264.html
900,2,41.322976,-72.961075,"Westville ★ Sunny 3rd Floor! HW Flrs, Big Kitchen, Great Neighborhood",2019-03-23 18:51:07,6845865388,https://newhaven.craigslist.org/apa/d/new-haven-westville-sunny-3rd-floor-hw/6845865388.html
900,2,41.322862,-72.961018,"Westville ★ Central Ave, Sunny 3rd Floor! HW Flrs,  Great Neighborhood",2019-03-21 09:56:15,6846689777,https://newhaven.craigslist.org/apa/d/new-haven-westville-central-ave-sunny/6846689777.html
900,2,41.322862,-72.961018,"Westville ★ Central Ave, Sunny 3rd Floor! HW Flrs,  Great Neighborhood",2019-03-21 09:37:51,6846675510,https://newhaven.craigslist.org/apa/d/new-haven-westville-central-ave-sunny/6846675510.html
650,1,41.681705,-73.015907,1 bedroom with fireplace,2019-03-23 18:46:58,6841250204,https://newhaven.craigslist.org/apa/d/1-bedroom-with-fireplace/6841250204.html
582,4,41.305616,-72.921427,!! Ultimate Escape !! 4Bd/2Ba with All Appliance and Natural Light!!!,2019-03-23 18:39:40,6831310060,https://newhaven.craigslist.org/apa/d/new-haven-ultimate-escape-4bd-2ba-with/6831310060.html
1200,2,41.318507,-72.947554,2 BR NEW HAVEN GORGEOUS APTS....$ 1200.MONTH,2019-03-24 19:43:41,6849561390,https://newhaven.craigslist.org/apa/d/new-haven-2-br-new-haven-gorgeous-apts/6849561390.html
1500,3,41.318507,-72.947554,3 BR APT 255 ELLSWORTH AVE 2ND FL NEW HAVEN GORGEOUS,2019-03-24 19:43:12,6849561103,https://newhaven.craigslist.org/apa/d/new-haven-3-br-apt-255-ellsworth-ave/6849561103.html
1500,3,41.318507,-72.947554,3 BR APT 255 ELLSWORTH AVE 2ND FL NEW HAVEN GORGEOUS,2019-03-24 19:42:25,6849560618,https://newhaven.craigslist.org/apa/d/new-haven-3-br-apt-255-ellsworth-ave/6849560618.html
1500,3,41.318507,-72.947554,3 BR APT 255 ELLSWORTH AVE 2ND FL NEW HAVEN GORGEOUS,2019-03-24 19:42:00,6849560361,https://newhaven.craigslist.org/apa/d/new-haven-3-br-apt-255-ellsworth-ave/6849560361.html
1000,1,41.318507,-72.947554,1BR  1000 SF $ 1000. GORGEOUS APT AVAILABLE,2019-03-23 19:05:58,6848850236,https://newhaven.craigslist.org/apa/d/new-haven-1br-1000-sf-gorgeous-apt/6848850236.html
1200,2,41.318507,-72.947554,2 BR NEW HAVEN GORGEOUS APTS....$ 1200.MONTH,2019-03-23 19:05:27,6848849880,https://newhaven.craigslist.org/apa/d/new-haven-2-br-new-haven-gorgeous-apts/6848849880.html
1200,2,41.318507,-72.947554,2 BR NEW HAVEN GORGEOUS APTS....$ 1200.MONTH,2019-03-23 19:04:49,6848849495,https://newhaven.craigslist.org/apa/d/new-haven-2-br-new-haven-gorgeous-apts/6848849495.html
1500,3,41.318507,-72.947554,3 BR APT 255 ELLSWORTH AVE 2ND FL NEW HAVEN GORGEOUS,2019-03-23 19:03:51,6848848847,https://newhaven.craigslist.org/apa/d/new-haven-3-br-apt-255-ellsworth-ave/6848848847.html
1200,2,41.318507,-72.947554,2 BR NEW HAVEN GORGEOUS APTS....$ 1200.MONTH,2019-03-23 19:00:44,6848846709,https://newhaven.craigslist.org/apa/d/new-haven-2-br-new-haven-gorgeous-apts/6848846709.html
1500,3,41.318507,-72.947554,3 BR APT 255 ELLSWORTH AVE 2ND FL NEW HAVEN GORGEOUS,2019-03-23 18:59:13,6848845726,https://newhaven.craigslist.org/apa/d/new-haven-3-br-apt-255-ellsworth-ave/6848845726.html
1500,3,41.318507,-72.947554,3 BR APT 255 ELLSWORTH AVE 2ND FL NEW HAVEN GORGEOUS,2019-03-23 18:58:07,6848845051,https://newhaven.craigslist.org/apa/d/new-haven-3-br-apt-255-ellsworth-ave/6848845051.html
1200,2,41.318507,-72.947554,2 BR NEW HAVEN GORGEOUS APTS....$ 1200.MONTH,2019-03-23 18:37:24,6848831120,https://newhaven.craigslist.org/apa/d/new-haven-2-br-new-haven-gorgeous-apts/6848831120.html
1200,2,41.318507,-72.947554,2 BR NEW HAVEN GORGEOUS APTS....$ 1200.MONTH,2019-03-23 18:36:39,6848830560,https://newhaven.craigslist.org/apa/d/new-haven-2-br-new-haven-gorgeous-apts/6848830560.html
1200,2,41.318507,-72.947554,2 BR NEW HAVEN GORGEOUS APTS....$ 1200.MONTH,2019-03-23 18:35:50,6848829958,https://newhaven.craigslist.org/apa/d/new-haven-2-br-new-haven-gorgeous-apts/6848829958.html
1200,2,41.318507,-72.947554,2 BR NEW HAVEN GORGEOUS APTS....$ 1200.MONTH,2019-03-23 18:35:09,6848829511,https://newhaven.craigslist.org/apa/d/new-haven-2-br-new-haven-gorgeous-apts/6848829511.html
1500,3,41.318507,-72.947554,3 BR APT 255 ELLSWORTH AVE 2ND FL NEW HAVEN GORGEOUS,2019-03-23 18:30:17,6848826084,https://newhaven.craigslist.org/apa/d/new-haven-3-br-apt-255-ellsworth-ave/6848826084.html
1500,3,41.318507,-72.947554,3 BR APT 255 ELLSWORTH AVE 2ND FL NEW HAVEN GORGEOUS,2019-03-23 18:29:25,6848825505,https://newhaven.craigslist.org/apa/d/new-haven-3-br-apt-255-ellsworth-ave/6848825505.html
1500,3,41.318507,-72.947554,3 BR APT 255 ELLSWORTH AVE 2ND FL NEW HAVEN GORGEOUS,2019-03-23 18:22:33,6848820932,https://newhaven.craigslist.org/apa/d/new-haven-3-br-apt-255-ellsworth-ave/6848820932.html
1430,1,41.095856,-73.416691,$1430 1 BD For Rent Norwalk!! YOU'LL LOVE IT!,2019-03-23 18:21:39,6838688597,https://newhaven.craigslist.org/apa/d/norwalk-bd-for-rent-norwalk-youll-love/6838688597.html
1295,1,41.326013,-72.915869,1-BR condo convenient to Yale,2019-03-25 09:38:23,6849827763,https://newhaven.craigslist.org/apa/d/new-haven-1-br-condo-convenient-to-yale/6849827763.html
1295,1,41.326013,-72.915869,"Modern 1-BR, available furnished",2019-03-24 15:51:50,6849390261,https://newhaven.craigslist.org/apa/d/new-haven-modern-1-br-available/6849390261.html
1295,0,41.326013,-72.915869,"Spacious 1BR in East Rock, furnished",2019-03-23 18:13:00,6836161691,https://newhaven.craigslist.org/apa/d/new-haven-spacious-1br-in-east-rock/6836161691.html
2200,2,41.326643,-72.915353,"Great Modern 2 Bedroom Apartment in East Rock Area, Avail. 6/1",2019-03-21 11:19:39,6839031326,https://newhaven.craigslist.org/apa/d/new-haven-great-modern-2-bedroom/6839031326.html
1414,3,41.266712,-72.891977,Perfect Home That You'll Love To Come Home To,2019-03-23 17:24:09,6848748507,https://newhaven.craigslist.org/apa/d/east-haven-perfect-home-that-youll-love/6848748507.html
1850,2,41.321773,-72.907447,Sunny first floor 2 BR in East Rock!,2019-03-23 17:10:22,6846999266,https://newhaven.craigslist.org/apa/d/new-haven-sunny-first-floor-2-br-in/6846999266.html
1000,2,41.402675,-72.874444,2 BEDROOM NEW HAVEN,2019-03-23 17:05:22,6845299173,https://newhaven.craigslist.org/apa/d/wallingford-2-bedroom-new-haven/6845299173.html
1100,1,41.317132,-72.908421,"one bedroom New Haven, East Rock, on Yale Shuttle",2019-03-23 16:44:42,6826944959,https://newhaven.craigslist.org/apa/d/new-haven-one-bedroom-new-haven-east/6826944959.html
2400,3,41.317648,-72.908077,3BR Apartment located in East Rock! Off street parking!,2019-03-07 20:00:08,6836108687,https://newhaven.craigslist.org/apa/d/new-haven-3br-apartment-located-in-east/6836108687.html
2400,0,41.317705,-72.908019,Renovated 3BR apartment in East Rock! CENTRAL AIR!,2019-03-05 18:23:58,6830620186,https://newhaven.craigslist.org/apa/d/new-haven-renovated-3br-apartment-in/6830620186.html
1575,2,41.352369,-72.915697,"2 Bedroom Townhouse, Hardwood, Granite, 10 min from Yale",2019-03-23 16:35:22,6848737465,https://newhaven.craigslist.org/apa/d/2-bedroom-townhouse-hardwood-granite-10/6848737465.html
3450,5,41.315929,-72.912832,55 Bishop Street front house East Rock New Haven,2019-03-23 16:25:41,6847006058,https://newhaven.craigslist.org/apa/d/new-haven-55-bishop-street-front-house/6847006058.html
1250,0,41.30636,-72.923088,*AVAILABLE 6/1!* BEAUTIFUL LOFT STUDIO DOWNTOWN - HT/HW INCLUDED,2019-03-25 12:04:06,6845671867,https://newhaven.craigslist.org/apa/d/new-haven-available-6-1-beautiful-loft/6845671867.html
1050,0,41.306418,-72.923661,*AVAILABLE 8/1!* - ALL UTILITIES INCLUDED! - COZY DOWNTOWN NH STUDIO,2019-03-23 21:59:54,6845327532,https://newhaven.craigslist.org/apa/d/new-haven-available-all-utilities/6845327532.html
1250,0,41.306303,-72.923031,*AVAILABLE 7/1!* BEAUTIFUL LOFT STUDIO DOWNTOWN - HT/HW INCLUDED! JULY,2019-03-23 15:53:52,6841776698,https://newhaven.craigslist.org/apa/d/new-haven-available-7-1-beautiful-loft/6841776698.html
1050,0,41.306418,-72.923661,*AVAIL. NOW!* COZY DOWNTOWN NH STUDIO - ALL UTILITIES INCLUDED!,2019-03-23 15:53:48,6846924982,https://newhaven.craigslist.org/apa/d/new-haven-avail-now-cozy-downtown-nh/6846924982.html
1200,0,41.306418,-72.923661,*AVAIL. 6/1* PRIVATE SPACIOUS DOWNTOWN STUDIO - ALL UTILITIES INCLUDED,2019-03-23 15:53:44,6846925315,https://newhaven.craigslist.org/apa/d/new-haven-avail-6-1-private-spacious/6846925315.html
1050,0,41.306475,-72.923317,*AVAILABLE 4/1!* - COZY DOWNTOWN STUDIO - ALL UTILITIES INCLUDED!,2019-03-23 15:53:39,6846925621,https://newhaven.craigslist.org/apa/d/new-haven-available-cozy-downtown/6846925621.html
2400,0,41.389726,-72.921312,Beautiful 3 bedroom apartment in heart of desirable East Rock. Newly renovated.,2019-03-23 15:51:04,6838013215,https://newhaven.craigslist.org/apa/d/cheshire-beautiful-3-bedroom-apartment/6838013215.html
2100,0,41.389726,-72.921312,Huge 2 bedroom apartment in the heart of east rock. Newly renovated. Gorgeous!,2019-03-23 15:50:59,6842531418,https://newhaven.craigslist.org/apa/d/cheshire-huge-2-bedroom-apartment-in/6842531418.html
1575,0,41.278515,-72.853187,branford apt. for rent,2019-03-23 15:20:01,6840594105,https://newhaven.craigslist.org/apa/d/east-haven-branford-apt-for-rent/6840594105.html
1100,1,41.322059,-72.862412,1 Bedroom w/ office or 2nd bedroom,2019-03-23 14:15:15,6830056387,https://newhaven.craigslist.org/apa/d/new-haven-1-bedroom-office-or-2nd/6830056387.html
800,2,41.552618,-73.012527,Great Location!!!!,2019-03-23 12:55:11,6848476045,https://newhaven.craigslist.org/apa/d/waterbury-great-location/6848476045.html
800,2,41.491082,-73.065869,Quiet neighborhood,2019-03-23 12:37:12,6848500975,https://newhaven.craigslist.org/apa/d/naugatuck-quiet-neighborhood/6848500975.html
2600,4,41.322289,-72.959929,Charming  Westville Dutch Colonial for Rent (Single Family Home),2019-03-23 12:21:28,6840924319,https://newhaven.craigslist.org/apa/d/new-haven-charming-westville-dutch/6840924319.html
1450,3,41.177789,-73.217245,3 Bedroom newly Renovated Apt,2019-03-23 12:09:15,6832602933,https://newhaven.craigslist.org/apa/d/bridgeport-3-bedroom-newly-renovated-apt/6832602933.html
1800,0,41.403935,-73.091767,"Home for rent $1,800 a month",2019-03-23 11:55:16,6848455963,https://newhaven.craigslist.org/apa/d/seymour-home-for-rent-1800-month/6848455963.html
1500,2,41.321143,-72.9648,"5rm,2nd fl. apt. on alden ave. westille",2019-03-23 11:18:41,6836371810,https://newhaven.craigslist.org/apa/d/new-haven-5rm2nd-fl-apt-on-alden-ave/6836371810.html
3700,4,41.297709,-73.497307,Large Gorgeous Contemporary. Sauna & Steam Rooms. Privacy.,2019-03-23 10:35:52,6830782017,https://newhaven.craigslist.org/apa/d/large-gorgeous-contemporary-sauna-steam/6830782017.html
1250,1,41.311402,-72.918447,Fully furnished 1 bedroom apartment in East Rock,2019-03-23 10:29:40,6830798067,https://newhaven.craigslist.org/apa/d/new-haven-fully-furnished-1-bedroom/6830798067.html
1200,2,41.315184,-73.095205,Incredible 2 bedroom in Shelton,2019-03-23 10:18:28,6848365209,https://newhaven.craigslist.org/apa/d/derby-incredible-2-bedroom-in-shelton/6848365209.html
1100,2,41.32458,-72.965888,New lower price in good neigborhood in Westville,2019-03-23 09:55:34,6827228723,https://newhaven.craigslist.org/apa/d/new-lower-price-in-good-neigborhood-in/6827228723.html
1900,3,41.318679,-72.914379,New Haven East Rock Three bedroom on Yale Shuttle,2019-03-23 16:45:37,6841514125,https://newhaven.craigslist.org/apa/d/new-haven-new-haven-east-rock-three/6841514125.html
1800,2,41.318622,-72.914437,New Haven East Rock Two Bedroom on Yale Shuttle,2019-03-23 16:44:50,6841529331,https://newhaven.craigslist.org/apa/d/new-haven-new-haven-east-rock-two/6841529331.html
2100,3,41.318335,-72.914666,"Yale 3 Shuttle@front door, available Jun 1st",2019-03-23 09:50:06,6837800245,https://newhaven.craigslist.org/apa/d/new-haven-yale-3-shuttlefront-door/6837800245.html
1350,1,41.322804,-72.914379,One Bedroom Apartment,2019-03-23 09:47:02,6843229103,https://newhaven.craigslist.org/apa/d/new-haven-one-bedroom-apartment/6843229103.html
2050,3,41.263618,-72.89593,"Spacious house, close to water",2019-03-23 09:35:01,6848333802,https://newhaven.craigslist.org/apa/d/east-haven-spacious-house-close-to-water/6848333802.html
,0,41.3212,-72.910426,got a dog? ☆☆☆ lots of nice options! ☆☆☆,2019-03-23 09:33:37,6843502770,https://newhaven.craigslist.org/apa/d/new-haven-got-dog-lots-of-nice-options/6843502770.html
1700,2,41.321601,-72.910884,"All Utilities Included - $1,700.00 - Pet Friendly - Fenced in Yard",2019-03-18 15:29:56,6844504717,https://newhaven.craigslist.org/apa/d/new-haven-all-utilities-included-pet/6844504717.html
2400,3,41.284817,-72.891977,"Gorgeous House ★ 3 BR, 3 Baths, W/D, HW Floors, 6 Mins to Yale! Dog OK",2019-03-23 09:29:25,6845855457,https://newhaven.craigslist.org/apa/d/east-haven-gorgeous-house-3-br-3-baths/6845855457.html
1250,2,41.325039,-72.85164,"East Haven ★ Immaculate 1st Floor Condo has C/A, DW, W/D, Parking",2019-03-23 09:29:16,6845854408,https://newhaven.craigslist.org/apa/d/new-haven-east-haven-immaculate-1st/6845854408.html
1665,1,41.264133,-72.992817,"One bedroom  available today! Spacious closets, chefs kitchen & patio",2019-03-25 11:01:36,6849904421,https://newhaven.craigslist.org/apa/d/west-haven-one-bedroom-available-today/6849904421.html
1795,1,41.264133,-72.992817,"Corner Unit, Vaulted Ceilings, Den",2019-03-23 17:18:44,6848773618,https://newhaven.craigslist.org/apa/d/west-haven-corner-unit-vaulted-ceilings/6848773618.html
2525,2,41.264133,-72.992817,LARGE Loft! New Low Price!,2019-03-23 10:24:24,6848370280,https://newhaven.craigslist.org/apa/d/west-haven-large-loft-new-low-price/6848370280.html
1660,1,41.264133,-72.992817,"First Floor, Private Location, Hardwood Floors",2019-03-23 09:14:53,6848321374,https://newhaven.craigslist.org/apa/d/west-haven-first-floor-private-location/6848321374.html
1400,2,41.351911,-72.92899,"2/3 bedroom, 2 bath, living, dining room with very huge yard",2019-03-23 09:07:12,6825212880,https://newhaven.craigslist.org/apa/d/hamden-2-3-bedroom-2-bath-living-dining/6825212880.html
1050,2,41.329623,-72.975342,"Westville ★Anthony St, Sunny 1st Floor, HW Flrs, 2 BR+Study, W/D Hkups",2019-03-23 18:51:12,6830850935,https://newhaven.craigslist.org/apa/d/new-haven-westville-anthony-st-sunny/6830850935.html
1245,2,41.329794,-72.975056,Renovated 3rd spacious 3rd floor,2019-03-23 09:02:27,6826259796,https://newhaven.craigslist.org/apa/d/new-haven-renovated-3rd-spacious-3rd/6826259796.html
1050,2,41.329565,-72.975399,"Westville ★Anthony St, Sunny 1st Floor, HW Flrs, 2 BR+Study, W/D Hkups",2019-03-21 09:38:59,6833302612,https://newhaven.craigslist.org/apa/d/new-haven-westville-anthony-st-sunny/6833302612.html
1050,2,41.329623,-72.975399,"Westville ★Anthony St, Sunny 1st Floor, HW Flrs, 2 BR+Study, W/D Hkups",2019-03-19 09:28:38,6832373840,https://newhaven.craigslist.org/apa/d/westville-anthony-st-sunny-1st-floor-hw/6832373840.html
1345,2,41.32968,-72.975056,Renovated Westville 2 Bedroom 1st Floor,2019-03-12 17:29:39,6834292319,https://newhaven.craigslist.org/apa/d/new-haven-renovated-westville-2-bedroom/6834292319.html
1195,0,41.32968,-72.975056,Renovated Westville 2 Bedroom 3rd Floor,2019-03-12 17:29:24,6834297236,https://newhaven.craigslist.org/apa/d/new-haven-renovated-westville-2-bedroom/6834297236.html
1295,3,41.32968,-72.975056,Renovated Westville 2 Bedroom 2nd Floor,2019-03-12 17:29:09,6834299226,https://newhaven.craigslist.org/apa/d/new-haven-renovated-westville-2-bedroom/6834299226.html
1300,3,41.319882,-72.952538,Beautiful 3 br. on quiet street near park,2019-03-23 09:02:16,6826301838,https://newhaven.craigslist.org/apa/d/new-haven-beautiful-3-br-on-quiet/6826301838.html
1300,3,41.331513,-72.925552,"Spacious 3rd floor, washer/dryer in unit",2019-03-23 09:02:05,6835504828,https://newhaven.craigslist.org/apa/d/new-haven-spacious-3rd-floor-washer/6835504828.html
1400,1,41.318794,-72.919364,"Huge 3rd floor, arched ceilings, skylights",2019-03-23 09:01:19,6835518453,https://newhaven.craigslist.org/apa/d/new-haven-huge-3rd-floor-arched/6835518453.html
2000,4,41.315528,-72.909853,"3/4 bedroom apartment- East Rock, New Haven",2019-03-23 19:07:35,6846934202,https://newhaven.craigslist.org/apa/d/new-haven-3-4-bedroom-apartment-east/6846934202.html
1425,2,41.3157,-72.909624,Spacious and elegant 1st floor of Victorian,2019-03-23 09:00:45,6826364881,https://newhaven.craigslist.org/apa/d/new-haven-spacious-and-elegant-1st/6826364881.html
1650,3,41.282697,-72.891919,"Spacious townhouse, deck, central a/c, pvt parking",2019-03-23 08:59:51,6835626119,https://newhaven.craigslist.org/apa/d/east-haven-spacious-townhouse-deck/6835626119.html
1750,4,41.307907,-72.915926,Industrial loft style 2nd floor,2019-03-23 08:58:40,6836320716,https://newhaven.craigslist.org/apa/d/new-haven-industrial-loft-style-2nd/6836320716.html
1750,3,41.308308,-72.886133,"Townhouse, Deck, River Views, Garage, Fireplace",2019-03-23 08:58:29,6836330698,https://newhaven.craigslist.org/apa/d/new-haven-townhouse-deck-river-views/6836330698.html
1850,2,41.323893,-72.913634,Spacious 2nd floor in restored Victorian,2019-03-23 08:57:09,6836779228,https://newhaven.craigslist.org/apa/d/new-haven-spacious-2nd-floor-in/6836779228.html
1350,2,41.323893,-72.913634,Large Two Bedroom Loft Apartment,2019-03-15 15:46:34,6838927462,https://newhaven.craigslist.org/apa/d/new-haven-large-two-bedroom-loft/6838927462.html
3200,8,41.307907,-72.94148,"big house 8 bedrooms, 4 car garage next Yale",2019-03-23 08:42:58,6843035546,https://newhaven.craigslist.org/apa/d/new-haven-big-house-8-bedrooms-4-car/6843035546.html
1200,1,41.311861,-72.922286,"ER/Downtown ★ Whitney Ave! Immaculate 1 BR, HW Flrs, AC, 8/1",2019-03-23 08:42:20,6845895536,https://newhaven.craigslist.org/apa/d/new-haven-er-downtown-whitney-ave/6845895536.html
1200,1,41.311861,-72.922286,"Downtown/East Rock★ Great 1 BR! 3 Min Walk to SOM! HW Floors, Laundry",2019-03-23 08:42:13,6845917340,https://newhaven.craigslist.org/apa/d/new-haven-downtown-east-rock-great-1-br/6845917340.html
1200,1,41.311861,-72.922286,"Downtown/East Rock★ Great 1 BR! 3 Min Walk to SOM! HW Floors, Laundry",2019-03-21 09:07:29,6846654645,https://newhaven.craigslist.org/apa/d/new-haven-downtown-east-rock-great-1-br/6846654645.html
1200,1,41.324695,-72.916557,Charming third floor apartment with heat & hot water included!!,2019-03-24 15:42:08,6830923766,https://newhaven.craigslist.org/apa/d/new-haven-charming-third-floor/6830923766.html
945,1,41.324752,-72.916155,"East Rock ★ Whitney Ave, Great 1 BR Apt! Laundry, Cat OK, 6/1",2019-03-23 08:40:46,6828637198,https://newhaven.craigslist.org/apa/d/new-haven-east-rock-whitney-ave-great-1/6828637198.html
945,1,41.32481,-72.916327,"East Rock ★ Whitney Ave, Cute 2 Room Studio! Laundry, Cat OK, 6/1",2019-03-21 09:08:49,6829421912,https://newhaven.craigslist.org/apa/d/new-haven-east-rock-whitney-ave-cute-2/6829421912.html
2500,2,41.324122,-72.9169,"Beautiful, sunny, and spacious and ideal layout",2019-03-19 15:11:48,6845340374,https://newhaven.craigslist.org/apa/d/new-haven-beautiful-sunny-and-spacious/6845340374.html
1095,1,41.324752,-72.916499,"East Rock ★ On Yale Shuttle! Cute 1 BR, Cat OK, 7/1",2019-03-14 10:46:48,6829427982,https://newhaven.craigslist.org/apa/d/new-haven-east-rock-on-yale-shuttle/6829427982.html
760,0,41.324695,-72.916557,EAST ROCK RENOVATED EFFICIENCY APARTMENT,2019-03-13 11:35:33,6840403635,https://newhaven.craigslist.org/apa/d/new-haven-east-rock-renovated/6840403635.html
1000,1,41.324695,-72.916557,EAST ROCK ONE BEDROOM ON FIRST FLOOR,2019-03-13 11:31:47,6840400007,https://newhaven.craigslist.org/apa/d/new-haven-east-rock-one-bedroom-on/6840400007.html
945,1,41.324752,-72.91627,"East Rock ★ Whitney Ave, Cute 2 Room Studio! Laundry, Cat OK, 6/1",2019-03-08 08:09:44,6836302882,https://newhaven.craigslist.org/apa/d/new-haven-east-rock-whitney-ave-cute-2/6836302882.html
1025,1,41.324752,-72.916499,"East Rock ★ Whitney Ave, Cute 1 BR, Cat OK, 7/1",2019-03-08 08:03:54,6830260095,https://newhaven.craigslist.org/apa/d/new-haven-east-rock-whitney-ave-cute-1/6830260095.html
1200,2,41.320971,-72.908019,"East Rock ★ 2nd Floor 2 BR+Study, HW Floors, Laundry, Dog OK! 3/21",2019-03-23 08:40:38,6828643836,https://newhaven.craigslist.org/apa/d/new-haven-east-rock-2nd-floor-2-brstudy/6828643836.html
1200,3,41.320971,-72.908019,"East Rock ★ 2nd Floor 2 BR+Study, HW Floors, Laundry, Dog OK! 3/19",2019-03-21 09:09:04,6831794666,https://newhaven.craigslist.org/apa/d/new-haven-east-rock-2nd-floor-2-brstudy/6831794666.html
1350,2,41.32057,-72.908363,Long term apartment for rental,2019-03-11 10:08:10,6838620208,https://newhaven.craigslist.org/apa/d/new-haven-long-term-apartment-for-rental/6838620208.html
1200,2,41.320971,-72.908019,"East Rock ★ Nicoll St 2nd Flr 2 BR+Study, HW Flrs, Laundry, Dog OK 3/9",2019-03-08 08:12:12,6830254832,https://newhaven.craigslist.org/apa/d/new-haven-east-rock-nicoll-st-2nd-flr-2/6830254832.html
1450,1,41.313064,-72.916327,"East Rock ★ Eld St, Adorable 3rd Floor 1 BR + Loft! Walk to SOM!",2019-03-23 08:38:05,6843425740,https://newhaven.craigslist.org/apa/d/new-haven-east-rock-eld-st-adorable-3rd/6843425740.html
1450,1,41.313064,-72.916385,"East Rock ★ Eld St, Adorable 1 BR + Loft, 5 Min Walk to SOM! W/D, 4/1",2019-03-21 09:09:24,6844093334,https://newhaven.craigslist.org/apa/d/new-haven-east-rock-eld-st-adorable-1/6844093334.html
1450,4,41.315585,-72.900858,4 bedroom,2019-03-23 08:26:59,6848297184,https://newhaven.craigslist.org/apa/d/4-bedroom/6848297184.html
1700,3,41.336613,-72.944861,Rental for Southern or UNH students,2019-03-23 08:04:58,6848288562,https://newhaven.craigslist.org/apa/d/new-haven-rental-for-southern-or-unh/6848288562.html
1100,2,41.385085,-72.905957,2 bedroom apt,2019-03-23 07:55:56,6843920880,https://newhaven.craigslist.org/apa/d/cheshire-2-bedroom-apt/6843920880.html
850,1,41.295302,-72.941538,1 Bedroom Apartment,2019-03-23 00:37:20,6839336737,https://newhaven.craigslist.org/apa/d/new-haven-1-bedroom-apartment/6839336737.html
900,2,41.326013,-72.875132,2 bedroom apartment new haven $900/month-READ AD,2019-03-22 22:22:23,6848168263,https://newhaven.craigslist.org/apa/d/new-haven-2-bedroom-apartment-new-haven/6848168263.html
800,1,41.322518,-72.884757,1 bedroom New Haven $800/Month,2019-03-22 22:21:55,6848168062,https://newhaven.craigslist.org/apa/d/new-haven-1-bedroom-new-haven-800-month/6848168062.html
1700,4,41.274217,-72.939876,"Big House close to Yale, the beach and new train station",2019-03-22 20:50:43,6848121248,https://newhaven.craigslist.org/apa/d/big-house-close-to-yale-the-beach-and/6848121248.html
600,1,41.212052,-73.213291,Near Sacred Heart University Apartment/Room Available,2019-03-22 20:39:44,6848114581,https://newhaven.craigslist.org/apa/d/near-sacred-heart-university-apartment/6848114581.html
950,2,41.319997,-72.865563,2 bedroom in East Haven RT 80/ $950 a month,2019-03-22 20:19:25,6848102343,https://newhaven.craigslist.org/apa/d/new-haven-2-bedroom-in-east-haven-rt/6848102343.html
1900,2,41.076776,-73.485274,Looking to Rent to Own Your Ideal Home?,2019-03-22 20:06:14,6848076696,https://newhaven.craigslist.org/apa/d/darien-looking-to-rent-to-own-your/6848076696.html
1650,3,41.179794,-73.188998,Want to Rent-To-Own your Ideal Home?,2019-03-22 19:59:49,6848075674,https://newhaven.craigslist.org/apa/d/bridgeport-want-to-rent-to-own-your/6848075674.html
2000,3,41.391674,-73.453189,Want to Rent-To-Own your Ideal Home?,2019-03-22 19:50:00,6848074368,https://newhaven.craigslist.org/apa/d/danbury-want-to-rent-to-own-your-ideal/6848074368.html
1900,2,41.135218,-73.568411,Looking to Rent to Own Your Ideal Home?,2019-03-22 19:47:03,6848072177,https://newhaven.craigslist.org/apa/d/stamford-looking-to-rent-to-own-your/6848072177.html
2100,3,41.318564,-72.918791,2100 3BR/2BA Furnished East Rock Apartment,2019-03-22 17:24:37,6831972669,https://newhaven.craigslist.org/apa/d/new-haven-br-2ba-furnished-east-rock/6831972669.html
2500,4,41.318335,-72.918619,4Bed/2Bath Bishop and Whitney- Available June 1st for 1 Year+,2019-03-18 13:00:25,6844344316,https://newhaven.craigslist.org/apa/d/new-haven-4bed-2bath-bishop-and-whitney/6844344316.html
2550,3,41.328362,-72.922114,SPACIOUS 3 BEDROOM IN EAST ROCK,2019-03-24 14:51:50,6846342495,https://newhaven.craigslist.org/apa/d/new-haven-spacious-3-bedroom-in-east/6846342495.html
2550,3,41.328591,-72.922057,NYC style loft in an English countryside setting!,2019-03-23 17:10:18,6847069803,https://newhaven.craigslist.org/apa/d/new-haven-nyc-style-loft-in-an-english/6847069803.html
2550,3,41.328018,-72.922114,Sunny & Unique 3br condo near everything & in a picturesque setting!,2019-03-22 16:37:33,6846071784,https://newhaven.craigslist.org/apa/d/new-haven-sunny-unique-3br-condo-near/6846071784.html
1850,2,41.322174,-72.908363,EAST ROCK! Sunny & spacious 2BR for rent-Available 6/15,2019-03-22 16:37:26,6846153785,https://newhaven.craigslist.org/apa/d/new-haven-east-rock-sunny-spacious-2br/6846153785.html
587,3,41.320398,-72.909968,New Special !! 3bed/2.5bath new flooring and eat in kitchen!!!,2019-03-22 16:34:37,6847911784,https://newhaven.craigslist.org/apa/d/new-haven-new-special-3bed-25bath-new/6847911784.html
538,3,41.326471,-72.962565,New Special !! 3bed/2.5bath new flooring and eat in kitchen!!!,2019-03-22 16:31:44,6847908992,https://newhaven.craigslist.org/apa/d/new-haven-new-special-3bed-25bath-new/6847908992.html
1095,1,41.277999,-72.944574,Includes HEAT & HOT WATER - Prime Elm St. location,2019-03-22 16:19:46,6847909010,https://newhaven.craigslist.org/apa/d/new-haven-includes-heat-hot-water-prime/6847909010.html
795,1,41.533767,-72.792167,*** 1BR Meriden - close to Wallingford Line ***,2019-03-22 16:18:10,6847907368,https://newhaven.craigslist.org/apa/d/1br-meriden-close-to-wallingford-line/6847907368.html
2400,3,41.143411,-73.349598,Rent-to-Own your IDEAL Home!,2019-03-22 19:46:43,6848073418,https://newhaven.craigslist.org/apa/d/westport-rent-to-own-your-ideal-home/6848073418.html
1250,0,41.143411,-73.349598,Westport CT Studio Apartment,2019-03-22 14:49:31,6829748811,https://newhaven.craigslist.org/apa/d/westport-westport-ct-studio-apartment/6829748811.html
1100,1,41.498645,-72.955919,"1 Bedrm Entire House in Prospect, CT - All Utilities included",2019-03-22 14:46:58,6825580259,https://newhaven.craigslist.org/apa/d/prospect-1-bedrm-entire-house-in/6825580259.html
1700,2,41.30361,-73.09721,2 BR Condo Townhouse,2019-03-22 14:40:38,6847808227,https://newhaven.craigslist.org/apa/d/2-br-condo-townhouse/6847808227.html
2200,3,41.302865,-72.920052,Beautiful 3BR 1BA with updated kitchen! Prime location on Wooster St,2019-03-22 14:22:29,6825720613,https://newhaven.craigslist.org/apa/d/new-haven-beautiful-3br-1ba-with/6825720613.html
2200,3,41.302865,-72.920052,Brand new 3 bedroom apt next to world famous pizza! Pets ok!,2019-03-21 16:20:40,6828134030,https://newhaven.craigslist.org/apa/d/new-haven-brand-new-3-bedroom-apt-next/6828134030.html
2200,3,41.346983,-72.952023,Completely renovated single family house for rent,2019-03-22 14:16:20,6847782285,https://newhaven.craigslist.org/apa/d/hamden-completely-renovated-single/6847782285.html
850,0,41.359073,-72.92601,~~~STUDIO IN HAMDEN~~H & HW INCLUDED,2019-03-22 14:15:02,6825423582,https://newhaven.craigslist.org/apa/d/cheshire-studio-in-hamdenh-hw-included/6825423582.html
2000,3,41.782202,-72.333171,RENT NOW 156 Skyview Dr,2019-03-22 13:59:38,6847741193,https://newhaven.craigslist.org/apa/d/coventry-rent-now-156-skyview-dr/6847741193.html
900,1,41.375516,-72.922687,Central Location 1 bedroom 1 bath Condo,2019-03-22 13:31:01,6825653563,https://newhaven.craigslist.org/apa/d/cheshire-central-location-1-bedroom-1/6825653563.html
1800,4,41.183174,-73.203551,SPACIOUS 4-BED APARTMENT WITH LIVING/DINING ROOM,2019-03-22 13:28:28,6838692394,https://newhaven.craigslist.org/apa/d/bridgeport-spacious-4-bed-apartment/6838692394.html
975,3,41.543221,-72.807122,Large 3 Br Apartment On 2nd Floor,2019-03-25 11:32:25,6836312200,https://newhaven.craigslist.org/apa/d/large-3-br-apartment-on-2nd-floor/6836312200.html
975,3,41.543221,-72.807122,Large 3 Br Apartment On 2nd Floor,2019-03-23 16:15:36,6833934876,https://newhaven.craigslist.org/apa/d/large-3-br-apartment-on-2nd-floor/6833934876.html
975,3,41.543221,-72.807122,Large 3 Br Apartment On 2nd Floor,2019-03-22 17:30:16,6835566758,https://newhaven.craigslist.org/apa/d/large-3-br-apartment-on-2nd-floor/6835566758.html
975,3,41.543221,-72.807122,Large 3 Br Apartment On 2nd Floor,2019-03-22 13:18:07,6833504065,https://newhaven.craigslist.org/apa/d/large-3-br-apartment-on-2nd-floor/6833504065.html
975,3,41.543221,-72.807122,Large 3 Br Apartment On 2nd Floor,2019-03-21 18:59:00,6834988122,https://newhaven.craigslist.org/apa/d/large-3-br-apartment-on-2nd-floor/6834988122.html
975,3,41.543221,-72.807122,Large 3 Br Apartment On 2nd Floor,2019-03-21 10:44:30,6838295438,https://newhaven.craigslist.org/apa/d/large-3-br-apartment-on-2nd-floor/6838295438.html
1250,2,41.316846,-72.947783,HUGE 2BR DUPLEX BEAVER HILLS (ELM ST),2019-03-25 09:16:23,6833164160,https://newhaven.craigslist.org/apa/d/new-haven-huge-2br-duplex-beaver-hills/6833164160.html
1250,3,41.316846,-72.947955,"Large apt in a Victorian, Hardwood floors",2019-03-22 13:09:07,6829394298,https://newhaven.craigslist.org/apa/d/large-apt-in-victorian-hardwood-floors/6829394298.html
1500,4,41.316846,-72.947783,HUGE 4BR DUPLEX BEAVER HILLS (ELM ST),2019-03-06 15:31:29,6833169038,https://newhaven.craigslist.org/apa/d/new-haven-huge-4br-duplex-beaver-hills/6833169038.html
1500,4,41.316788,-72.947439,Beautifully Renovated Large 4 Bedroom 2 Bath,2019-03-05 11:54:02,6830976732,https://newhaven.craigslist.org/apa/d/new-haven-beautifully-renovated-large-4/6830976732.html
800,1,41.280806,-72.87135,"East Haven, Spacious apt, convenient location, Parking",2019-03-22 13:08:20,6839610302,https://newhaven.craigslist.org/apa/d/east-haven-east-haven-spacious-apt/6839610302.html
1000,4,41.564535,-73.048509,"NEWLY RENOVATED LARGE 1ST FL 4 BDR APT,OFF ST PARK,WASH DRYER HKUP.",2019-03-22 13:02:30,6847699052,https://newhaven.craigslist.org/apa/d/waterbury-newly-renovated-large-1st-fl/6847699052.html
1050,2,41.534111,-72.791824,For rent,2019-03-22 12:51:53,6847687649,https://newhaven.craigslist.org/apa/d/meriden-for-rent/6847687649.html
1000,1,41.334836,-72.970415,BEAUTIFUL AND SPACIOUS 1 BR TOWNHOUSE HOUSE NOW AVAILABLE!!,2019-03-25 14:30:29,6835963334,https://newhaven.craigslist.org/apa/d/new-haven-beautiful-and-spacious-1-br/6835963334.html
1000,1,41.334836,-72.970415,BEAUTIFUL AND SPACIOUS 1 BR TOWNHOUSE HOUSE NOW AVAILABLE,2019-03-25 11:08:52,6847630981,https://newhaven.craigslist.org/apa/d/new-haven-beautiful-and-spacious-1-br/6847630981.html
1000,1,41.334836,-72.970415,1BR TOWNHOUSE **DON'T MISS IT**,2019-03-22 12:51:09,6835371259,https://newhaven.craigslist.org/apa/d/new-haven-1br-townhouse-dont-miss-it/6835371259.html
1150,3,41.330768,-72.937011,BEAUTIFUL 3 BR APARTMENT ON THE 2nd FLOORAVAILABLE,2019-03-25 11:08:38,6847626606,https://newhaven.craigslist.org/apa/d/new-haven-beautiful-3-br-apartment-on/6847626606.html
1200,3,41.330768,-72.937011,"$1,200 - 3BR EVERYTHING BRAND NEW",2019-03-22 12:50:12,6835358626,https://newhaven.craigslist.org/apa/d/new-haven-br-everything-brand-new/6835358626.html
1150,3,41.316444,-72.939991,3BR WINTER PROMOTION- MOVE IN BY 02/15 AND GET 1 MONTH FREE!,2019-03-22 12:49:56,6835357861,https://newhaven.craigslist.org/apa/d/new-haven-3br-winter-promotion-move-in/6835357861.html
1150,3,41.316444,-72.939991,"3 Bedroom, 1 Bath on County St",2019-03-22 00:17:12,6845047365,https://newhaven.craigslist.org/apa/d/new-haven-3-bedroom-1-bath-on-county-st/6845047365.html
1000,3,41.320914,-72.935063,3BR **GREAT PRICE**,2019-03-22 12:49:50,6835354029,https://newhaven.craigslist.org/apa/d/new-haven-3br-great-price/6835354029.html
995,3,41.320914,-72.935063,"3 Bedroom, 1 Bath on Henry St - 2nd floor",2019-03-20 18:39:36,6846365432,https://newhaven.craigslist.org/apa/d/new-haven-3-bedroom-1-bath-on-henry-st/6846365432.html
1050,2,41.321143,-72.946236,2 BR **MUST SEE**,2019-03-22 12:49:22,6835343028,https://newhaven.craigslist.org/apa/d/new-haven-2-br-must-see/6835343028.html
1200,3,41.327617,-72.926984,Beautiful spacious 3br located on the 2nd fl of a multi-family home,2019-03-25 11:07:46,6847507443,https://newhaven.craigslist.org/apa/d/new-haven-beautiful-spacious-3br/6847507443.html
1200,3,41.327617,-72.926984,"$1,200 - 3BR GREAT LOCATION",2019-03-22 12:48:14,6835329454,https://newhaven.craigslist.org/apa/d/new-haven-br-great-location/6835329454.html
1100,3,41.327617,-72.926984,"3 Bedrooms, 1 Bath on Winchester Ave - 2nd floor -",2019-03-22 00:17:39,6845091833,https://newhaven.craigslist.org/apa/d/new-haven-3-bedrooms-1-bath-on/6845091833.html
950,1,41.334034,-72.972019,BEAUTIFUL AND SPACIOUS 1 BR WITH HT/HW INCLUDED,2019-03-25 11:07:15,6847503704,https://newhaven.craigslist.org/apa/d/new-haven-beautiful-and-spacious-1-br/6847503704.html
950,1,41.334034,-72.972019,$950 - 1BR UTILITIES ARE INCLUDED,2019-03-22 12:47:53,6835324928,https://newhaven.craigslist.org/apa/d/new-haven-br-utilities-are-included/6835324928.html
900,1,41.318965,-72.945434,Spacious one bedroom close to everything,2019-03-25 13:33:26,6850074039,https://newhaven.craigslist.org/apa/d/new-haven-spacious-one-bedroom-close-to/6850074039.html
900,1,41.318965,-72.945434,1 BR ** GOOD DEAL**,2019-03-22 12:47:35,6845667156,https://newhaven.craigslist.org/apa/d/new-haven-1-br-good-deal/6845667156.html
1385,3,41.31845,-72.945147,NORTON by Whalley 3 BEDROOMS 1 1/2 NEW BATHS  2 family house,2019-03-21 14:36:50,6846971446,https://newhaven.craigslist.org/apa/d/new-haven-norton-by-whalley-3-bedrooms/6846971446.html
700,0,41.17544,-73.197592,"Studio Apt - 625 Fairfield Ave, Bpt",2019-03-22 12:47:11,6847682454,https://newhaven.craigslist.org/apa/d/bridgeport-studio-apt-fairfield-ave-bpt/6847682454.html
925,1,41.163809,-73.19765,"1 Bdrm Apt - 810 Atlantic St, Bpt",2019-03-22 12:45:35,6847680657,https://newhaven.craigslist.org/apa/d/bridgeport-1-bdrm-apt-atlantic-st-bpt/6847680657.html
1140,1,41.203056,-73.187508,1 BDRM APT/CONDO,2019-03-22 12:43:21,6847678127,https://newhaven.craigslist.org/apa/d/bridgeport-1-bdrm-apt-condo/6847678127.html
1850,3,41.345608,-72.914838,HAMDEN - Absolutely charming Arts & Crafts style home!,2019-03-22 12:41:19,6823951561,https://newhaven.craigslist.org/apa/d/hamden-hamden-absolutely-charming-arts/6823951561.html
1350,2,41.20277,-73.187566,"2 BDRM APT/CONDO - 42 Dean Place, Bpt",2019-03-22 12:39:02,6847673171,https://newhaven.craigslist.org/apa/d/bridgeport-2-bdrm-apt-condo-42-dean/6847673171.html
800,0,41.550612,-73.034872,SUPER CLEAN DUPLEX!,2019-03-22 12:02:17,6847600583,https://newhaven.craigslist.org/apa/d/waterbury-super-clean-duplex/6847600583.html
1150,1,41.27502,-72.824711,Sparkling 1 BR with Office,2019-03-22 11:15:35,6847579531,https://newhaven.craigslist.org/apa/d/branford-sparkling-1-br-with-office/6847579531.html
1250,2,41.319195,-72.962279,Large 2-Br w/ Off-Street Parking & Breezy Private Balcony,2019-03-22 11:14:53,6847578737,https://newhaven.craigslist.org/apa/d/new-haven-large-2-br-off-street-parking/6847578737.html
2130,3,41.311689,-72.933058,3 bedroom apartment in Yale undergrad building,2019-03-25 16:06:00,6838961974,https://newhaven.craigslist.org/apa/d/new-haven-3-bedroom-apartment-in-yale/6838961974.html
1500,2,41.311689,-72.933058,2 BR minutes from Yale & central campus for June 1,2019-03-25 13:18:23,6845150157,https://newhaven.craigslist.org/apa/d/new-haven-2-br-minutes-from-yale/6845150157.html
1030,1,41.311746,-72.933115,"Top floor, skylights, large living room Yale area for August 1",2019-03-22 11:04:14,6830211231,https://newhaven.craigslist.org/apa/d/new-haven-top-floor-skylights-large/6830211231.html
1000,1,41.311746,-72.93323,"Charming apartment, built in bookcase, sky light in living room- Aug 1",2019-03-22 11:01:49,6825514547,https://newhaven.craigslist.org/apa/d/new-haven-charming-apartment-built-in/6825514547.html
2200,2,41.311918,-72.933631,"Best 2 bed in the center of Campus with yard, pet friendly.",2019-03-07 19:24:10,6836085992,https://newhaven.craigslist.org/apa/d/new-haven-best-2-bed-in-the-center-of/6836085992.html
1125,1,41.310715,-72.930021,"Downtown/ Yale area, large rooms, high ceilings, backyard access",2019-03-22 10:59:19,6825522763,https://newhaven.craigslist.org/apa/d/new-haven-downtown-yale-area-large/6825522763.html
1000,0,41.5835,-73.057848,RENOVATED TWO BEDROOM HOME!,2019-03-22 10:55:09,6847558819,https://newhaven.craigslist.org/apa/d/waterbury-renovated-two-bedroom-home/6847558819.html
850,0,41.539096,-73.050228,Awesome 2 Bedroom home!,2019-03-22 10:51:30,6847537997,https://newhaven.craigslist.org/apa/d/waterbury-awesome-2-bedroom-home/6847537997.html
1175,1,41.278687,-72.814284,"*Gorgeous 1Bed, 1 Bath Condo *Center of Branford* Pet Friendly*",2019-03-22 10:30:36,6847535446,https://newhaven.craigslist.org/apa/d/branford-gorgeous-1bed-1-bath-condo/6847535446.html
850,2,41.53921,-73.049941,~~Wonderful 2 Bedroom Unit~~,2019-03-22 10:27:27,6847513873,https://newhaven.craigslist.org/apa/d/waterbury-wonderful-2-bedroom-unit/6847513873.html
850,0,41.565108,-73.041977,NEWLY RENOVATED 2 BEDROOM UNIT!,2019-03-22 10:17:35,6847513038,https://newhaven.craigslist.org/apa/d/waterbury-newly-renovated-2-bedroom-unit/6847513038.html
800,0,41.565395,-73.033555,NEWLY RENOVATED 2 BEDROOM UNIT!,2019-03-22 10:13:23,6847519912,https://newhaven.craigslist.org/apa/d/waterbury-newly-renovated-2-bedroom-unit/6847519912.html
1250,2,41.518527,-72.827634,2 Bedroom 1&1/2 Bath Townhouse Condo,2019-03-22 09:57:19,6839441417,https://newhaven.craigslist.org/apa/d/meriden-2-bedroom-11-2-bath-townhouse/6839441417.html
900,3,41.56379,-73.047076,Renovated 3 Bedroom 1st Fl Apt For Rent,2019-03-22 09:56:12,6843477604,https://newhaven.craigslist.org/apa/d/waterbury-renovated-3-bedroom-1st-fl/6843477604.html
1650,2,41.322117,-72.911858,great apartment in east rock and hooker school w parking,2019-03-24 03:05:08,6849018579,https://newhaven.craigslist.org/apa/d/new-haven-great-apartment-in-east-rock/6849018579.html
2325,2,41.322117,-72.911858,Elegant 2-3 bedroom in East Rock,2019-03-22 09:24:11,6845071824,https://newhaven.craigslist.org/apa/d/new-haven-elegant-2-3-bedroom-in-east/6845071824.html
2515,2,41.297709,-72.377174,2 bedroom w/ 3rd floor vaulted ceilings and open living concept,2019-03-22 09:15:13,6828606913,https://newhaven.craigslist.org/apa/d/old-saybrook-2-bedroom-3rd-floor/6828606913.html
900,2,41.57989,-73.013329,2Bd 1.5Bath Duplex Condo Close 2 All,2019-03-22 09:13:46,6847472378,https://newhaven.craigslist.org/apa/d/waterbury-2bd-15bath-duplex-condo-close/6847472378.html
1250,3,41.483576,-73.048681,THREE BEDROOMS,2019-03-22 08:57:01,6835961427,https://newhaven.craigslist.org/apa/d/naugatuck-three-bedrooms/6835961427.html
1250,3,41.483748,-73.048795,THREE BEDROOMS IN NAUGATUCK,2019-03-22 08:56:32,6831208202,https://newhaven.craigslist.org/apa/d/naugatuck-three-bedrooms-in-naugatuck/6831208202.html
850,1,41.483404,-73.048623,"ONE BEDROOM IN NAUGATUCK, CT",2019-03-22 08:55:48,6831215472,https://newhaven.craigslist.org/apa/d/naugatuck-one-bedroom-in-naugatuck-ct/6831215472.html
1375,3,41.353916,-73.083516,"3 ❤️❤️ bedroom, SECTION 8 WELCOME",2019-03-22 08:20:48,6847445585,https://newhaven.craigslist.org/apa/d/ansonia-3-bedroom-section-8-welcome/6847445585.html
1759,5,41.286708,-72.950648,Available Soon 5 Bedroom 2nd Floor Apply within.,2019-03-22 08:06:40,6844937495,https://newhaven.craigslist.org/apa/d/new-haven-available-soon-5-bedroom-2nd/6844937495.html
1100,2,41.308308,-73.065354,Clean renovated apartment,2019-03-22 00:27:24,6830094024,https://newhaven.craigslist.org/apa/d/derby-clean-renovated-apartment/6830094024.html
1700,4,41.294328,-72.933516,"4 Bedroom, 2 Bath on Howard Ave - 2nd & 3rd",2019-03-22 00:18:02,6845108913,https://newhaven.craigslist.org/apa/d/new-haven-4-bedroom-2-bath-on-howard/6845108913.html
1295,4,41.304183,-72.896331,4 Bedroom 1 Bath at 109 Chapel St - 2nd & 3rd floor,2019-03-22 00:17:57,6845107073,https://newhaven.craigslist.org/apa/d/new-haven-4-bedroom-1-bath-at-109/6845107073.html
1200,4,41.307621,-72.902462,"4 Bedrooms, 1 Bath on Woolsey St - 2nd floor -",2019-03-22 00:17:42,6845094962,https://newhaven.craigslist.org/apa/d/new-haven-4-bedrooms-1-bath-on-woolsey/6845094962.html
1050,3,41.305043,-72.894612,"3 Bedrooms, 1 Bath on Ferry St - 2nd Floor -",2019-03-22 00:17:35,6845089159,https://newhaven.craigslist.org/apa/d/new-haven-3-bedrooms-1-bath-on-ferry-st/6845089159.html
1175,2,41.320169,-72.897878,"2 Bedrooms, 1 Bath on State St - 1st floor -",2019-03-22 00:17:27,6845083732,https://newhaven.craigslist.org/apa/d/new-haven-2-bedrooms-1-bath-on-state-st/6845083732.html
1175,3,41.320627,-72.95059,"3 Bedroom, 1 Bath at 40 Blake St",2019-03-22 00:17:04,6845043507,https://newhaven.craigslist.org/apa/d/new-haven-3-bedroom-1-bath-at-40-blake/6845043507.html
1100,3,41.316788,-72.895529,"3 Bedrooms, 1 Bath on English St",2019-03-22 00:16:56,6845041895,https://newhaven.craigslist.org/apa/d/new-haven-3-bedrooms-1-bath-on-english/6845041895.html
1675,1,41.322002,-72.897019,"1 bedroom, 1 bath on State St *Offering one month free*",2019-03-22 00:16:53,6845039169,https://newhaven.craigslist.org/apa/d/new-haven-1-bedroom-1-bath-on-state-st/6845039169.html
1500,1,41.322002,-72.897019,"1 bedroom, 1 bath on State St *Offering one month free*",2019-03-22 00:16:48,6845033171,https://newhaven.craigslist.org/apa/d/new-haven-1-bedroom-1-bath-on-state-st/6845033171.html
995,1,41.280921,-72.964169,"1 Bedroom, 1 Bath on Coleman St in West Haven",2019-03-22 00:16:24,6845005981,https://newhaven.craigslist.org/apa/d/west-haven-1-bedroom-1-bath-on-coleman/6845005981.html
1095,1,41.280291,-72.956263,"1 Bedroom, 1 Bath on Highland St - H&H included -",2019-03-22 00:16:42,6845029042,https://newhaven.craigslist.org/apa/d/new-haven-1-bedroom-1-bath-on-highland/6845029042.html
975,0,41.280291,-72.956263,Studio Apartment on Highland St in West Haven H&H included,2019-03-22 00:16:20,6845003408,https://newhaven.craigslist.org/apa/d/new-haven-studio-apartment-on-highland/6845003408.html
1200,2,41.280291,-72.956263,"2 Bedrooms, 1 Bath in West Haven - H&H - 1st floor walk-in",2019-03-20 18:43:52,6846368274,https://newhaven.craigslist.org/apa/d/new-haven-2-bedrooms-1-bath-in-west/6846368274.html
1395,2,41.336326,-72.95844,"2 Bedroom, 1 bath on Springside Ave",2019-03-22 00:08:25,6847362321,https://newhaven.craigslist.org/apa/d/new-haven-2-bedroom-1-bath-on/6847362321.html
975,2,41.301032,-72.941423,"2 Bedroom, 1 Bath on Kossuth St - 3rd floor",2019-03-21 23:56:52,6847358646,https://newhaven.craigslist.org/apa/d/new-haven-2-bedroom-1-bath-on-kossuth/6847358646.html
975,2,41.314439,-72.94234,"2 Bedroom, 1 Bath on Platt St - 3rd floor",2019-03-21 23:43:21,6847354399,https://newhaven.craigslist.org/apa/d/new-haven-2-bedroom-1-bath-on-platt-st/6847354399.html
1200,0,41.299313,-72.94211,"2 Bedroom, 1 Bath duplex on Congress Ave -",2019-03-21 23:39:48,6847353247,https://newhaven.craigslist.org/apa/d/new-haven-2-bedroom-1-bath-duplex-on/6847353247.html
850,1,41.312319,-72.900055,"1 Bedroom, 1 Bath on Blatchley Ave - 2nd floor *New stand-up shower*",2019-03-21 23:31:09,6847350301,https://newhaven.craigslist.org/apa/d/new-haven-1-bedroom-1-bath-on-blatchley/6847350301.html
895,1,41.296162,-72.892893,"1 Bed, 1 Bath on Farren Ave - 2nd floor",2019-03-21 23:24:11,6847347894,https://newhaven.craigslist.org/apa/d/new-haven-1-bed-1-bath-on-farren-ave/6847347894.html
1050,1,41.32905,-72.924635,"1 Bedroom, 1 bath on Highland St - 1st floor",2019-03-21 23:17:58,6847345667,https://newhaven.craigslist.org/apa/d/new-haven-1-bedroom-1-bath-on-highland/6847345667.html
1150,2,41.274619,-72.944861,luxury 2-BR Condo,2019-03-21 21:43:07,6847303879,https://newhaven.craigslist.org/apa/d/new-haven-luxury-2-br-condo/6847303879.html
1100,2,41.313179,-73.089533,First Floor,2019-03-21 21:38:44,6847301634,https://newhaven.craigslist.org/apa/d/derby-first-floor/6847301634.html
40,2,41.298797,-72.934146,Furnished Two BR APT Close To Yale Medical School,2019-03-21 21:16:26,6828998917,https://newhaven.craigslist.org/apa/d/furnished-two-br-apt-close-to-yale/6828998917.html
1150,3,41.30848,-72.903264,3 bed room apartments Section 8 welcomed,2019-03-21 20:42:15,6844782371,https://newhaven.craigslist.org/apa/d/new-haven-3-bed-room-apartments-section/6844782371.html
1550,3,41.329336,-72.897305,Hamden - 3 Bedroom - 2nd Floor,2019-03-21 19:18:49,6823747119,https://newhaven.craigslist.org/apa/d/hamden-hamden-3-bedroom-2nd-floor/6823747119.html
1900,3,41.209473,-73.060082,2 BLOCKS TO THE BEACH - 3 BR,2019-03-21 19:18:36,6823715786,https://newhaven.craigslist.org/apa/d/milford-2-blocks-to-the-beach-3-br/6823715786.html
1400,2,41.302522,-72.877825,condo,2019-03-21 18:31:29,6847183265,https://newhaven.craigslist.org/apa/d/new-haven-condo/6847183265.html
1200,2,41.325039,-72.923031,PROSPECT ST/YALE POST GRADS/PROFESSIONALS,2019-03-21 17:42:07,6847143606,https://newhaven.craigslist.org/apa/d/new-haven-prospect-st-yale-post-grads/6847143606.html
1150,2,41.387262,-73.437776,"2BR, 1BA, updated kitchen appliances and tons of storage space",2019-03-21 17:31:12,6847134182,https://newhaven.craigslist.org/apa/d/danbury-2br-1ba-updated-kitchen/6847134182.html
1500,3,41.502197,-72.97878,"House for rent. Clean, 3br, secluded.",2019-03-21 17:10:38,6832122249,https://newhaven.craigslist.org/apa/d/prospect-house-for-rent-clean-3br/6832122249.html
4500,4,41.252903,-72.810903,Stunning furnished beach house for rent yearly or monthly!,2019-03-21 16:46:43,6847094706,https://newhaven.craigslist.org/apa/d/branford-stunning-furnished-beach-house/6847094706.html
1240,1,41.309741,-72.937641,"Renovated 1 BR, bay windows, hardwood floors, Yale area for August",2019-03-25 16:00:37,6850226964,https://newhaven.craigslist.org/apa/d/new-haven-renovated-1-br-bay-windows/6850226964.html
3000,3,41.308996,-72.937412,"3 BEDROOM 2 BATH, DOWNTOWN W/PARKING & LAUNDRY!",2019-03-24 14:52:36,6828145679,https://newhaven.craigslist.org/apa/d/new-haven-3-bedroom-2-bath-downtown/6828145679.html
1290,1,41.309741,-72.937641,"Oak floors, huge formal rooms, Yale area for August 16",2019-03-22 10:58:41,6847562268,https://newhaven.craigslist.org/apa/d/new-haven-oak-floors-huge-formal-rooms/6847562268.html
2000,3,41.308996,-72.937412,"Spacious 3br duplex w/ parking, laundry, next to Yale!",2019-03-21 16:22:56,6828124969,https://newhaven.craigslist.org/apa/d/new-haven-spacious-3br-duplex-parking/6828124969.html
1620,2,41.309741,-72.937641,"For mid August- spacious 2 BR, hardwood floors, bay windows, Yale area",2019-03-20 18:30:21,6846358050,https://newhaven.craigslist.org/apa/d/new-haven-for-mid-august-spacious-2-br/6846358050.html
1650,2,41.309512,-72.937527,Large two-bedroom on Chapel & Dwight,2019-02-28 19:34:25,6830604311,https://newhaven.craigslist.org/apa/d/new-haven-large-two-bedroom-on-chapel/6830604311.html
1200,1,41.309512,-72.937412,Pet Friendly! Large one-bedroom on corner of Chapel & Dwight St,2019-02-28 19:28:48,6830601104,https://newhaven.craigslist.org/apa/d/new-haven-pet-friendly-large-one/6830601104.html
1225,1,41.309512,-72.937412,Pet Friendly! Dwight Street 1 Bed Great Layout!,2019-02-28 19:22:50,6830597419,https://newhaven.craigslist.org/apa/d/new-haven-pet-friendly-dwight-street-1/6830597419.html
1400,0,41.309512,-72.937527,Pets Welcome! Two Bedroom with outdoor patio space!,2019-02-28 19:18:13,6830594480,https://newhaven.craigslist.org/apa/d/new-haven-pets-welcome-two-bedroom-with/6830594480.html
1600,2,41.309626,-72.93747,Large Second Floor 2-Bedroom Apartment,2019-02-28 19:01:27,6830583357,https://newhaven.craigslist.org/apa/d/new-haven-large-second-floor-2-bedroom/6830583357.html
2300,3,41.213312,-73.021637,Milford Updated 3 bedroom by the Beach,2019-03-21 16:06:07,6847057281,https://newhaven.craigslist.org/apa/d/milford-milford-updated-3-bedroom-by/6847057281.html
2000,0,41.269405,-72.492854,Shoreline 2br Summer Rental with Oceanviews and Beach Access,2019-03-21 15:53:15,6839801686,https://newhaven.craigslist.org/apa/d/westbrook-shoreline-2br-summer-rental/6839801686.html
1425,2,41.303496,-72.917702,"Bright, Suuny Apartment with porch in Wooster Square",2019-03-21 14:41:03,6823705611,https://newhaven.craigslist.org/apa/d/new-haven-bright-suuny-apartment-with/6823705611.html
1500,2,41.303725,-72.917244,Wooster Square,2019-03-19 11:01:21,6838361339,https://newhaven.craigslist.org/apa/d/new-haven-wooster-square/6838361339.html
1550,2,41.302865,-72.893123,2BR/1BA Apt in Great Location with Lots of Perks,2019-03-21 14:39:16,6839676292,https://newhaven.craigslist.org/apa/d/new-haven-2br-1ba-apt-in-great-location/6839676292.html
1300,3,41.314496,-72.947668,Apartment for Rent,2019-03-21 14:39:03,6846973677,https://newhaven.craigslist.org/apa/d/new-haven-apartment-for-rent/6846973677.html
